id,name,latitude,longitude,elevation
AE000041196,"SHARJAH INTER. AIRP, AE",25.333,55.517,34.0
AEM00041194,"DUBAI INTERNATIONAL, AE",25.255,55.364,10.4
AEM00041217,"ABU DHABI INTERNATIONAL, AE",24.433,54.651,26.8
AEM00041218,"AL AIN INTERNATIONAL, AE",24.262,55.609,264.9
AG000060390,"ALGER DAR EL BEIDA, AG",36.7167,3.25,24.0
AG000060590,"EL GOLEA, AG",30.5667,2.8667,397.0
AG000060611,"IN AMENAS, AG",28.05,9.6331,561.0
AGE00147708,"TIZI OUZOU, AG",36.72,4.05,222.0
AGE00147716,"NEMOURS GHAZAOUET, AG",35.1,-1.85,83.0
AGE00147718,"BISKRA, AG",34.85,5.72,125.0
AGE00147719,"LAGHOUAT, AG",33.7997,2.89,767.0
AGM00060351,"JIJEL, AG",36.795,5.874,11.0
AGM00060355,SKIKDA,36.933,6.95,7.0
AGM00060360,"ANNABA, AG",36.822,7.809,4.9
AGM00060402,"SOUMMAM, AG",36.712,5.07,6.1
AGM00060403,"GUELMA, AG",36.467,7.467,228.0
AGM00060419,"MOHAMED BOUDIAF INTERNATIONAL, AG",36.276,6.62,690.4
AGM00060421,"OUM EL BOUAGHI, AG",35.867,7.117,891.0
AGM00060423,"SOUK AHRAS, AG",36.283,7.967,680.0
AGM00060425,"ECH CHELIFF, AG",36.213,1.332,141.1
AGM00060430,"MILIANA, AG",36.3,2.233,721.0
AGM00060437,"MEDEA, AG",36.283,2.733,1036.0
AGM00060444,"BORDJ BOU ARRERIDJ, AG",36.067,4.767,930.0
AGM00060445,"SETIF AIN ARNAT, AG",36.178,5.324,1050.0
AGM00060452,"ARZEW, AG",35.817,-0.267,4.0
AGM00060457,"MOSTAGANEM, AG",35.883,0.117,138.0
AGM00060461,"ORAN PORT, AG",35.7,-0.65,22.0
AGM00060467,"M SILA, AG",35.667,4.5,442.0
AGM00060468,"BATNA, AG",35.55,6.183,1052.0
AGM00060475,"CHEIKH LARBI TEBESSI, AG",35.432,8.121,811.1
AGM00060490,"ES SENIA, AG",35.624,-0.621,89.9
AGM00060507,"GHRISS, AG",35.208,0.147,513.9
AGM00060511,"BOU CHEKIF, AG",35.341,1.463,989.1
AGM00060514,"KSAR CHELLALA, AG",35.167,2.317,801.0
AGM00060515,"BOU SAADA, AG",35.333,4.206,459.0
AGM00060518,"BENI SAF, AG",35.3,-1.35,70.0
AGM00060520,"SIDI BEL ABBES, AG",35.2,-0.617,476.0
AGM00060522,"MAGHNIA, AG",34.82,-1.77,426.0
AGM00060531,"ZENATA, AG",35.017,-1.45,248.1
AGM00060535,"DJELFA TLETSI, AG",34.683,3.25,1144.0
AGM00060536,"SAIDA, AG",34.867,0.15,752.0
AGM00060549,"MECHERIA, AG",33.536,-0.242,1175.0
AGM00060550,"EL BAYADH, AG",33.667,1.0,1347.0
AGM00060555,"SIDI MAHDI, AG",33.068,6.089,85.0
AGM00060557,"NAAMA, AG",33.267,-0.3,1166.0
AGM00060559,"GUEMAR, AG",33.511,6.777,61.9
AGM00060560,"AIN SEFRA, AG",32.767,-0.6,1059.0
AGM00060566,"NOUMERAT, AG",32.384,3.794,460.9
AGM00060571,"BECHAR, AG",31.646,-2.27,811.1
AGM00060580,"OUARGLA, AG",31.917,5.413,150.0
AGM00060581,"OUED IRARA, AG",31.673,6.14,141.1
AGM00060602,"BENI ABBES, AG",30.133,-2.167,505.0
AGM00060603,"RHOURD NOUSS, AG",29.717,6.7,252.0
AGM00060607,"TIMIMOUN, AG",29.237,0.276,313.0
AGM00060620,"TOUAT CHEIKH SIDI MOHAMED BEL, AG",27.838,-0.186,280.1
AGM00060640,"ILLIZI TAKHAMALT, AG",26.724,8.623,541.9
AGM00060656,"TINDOUF, AG",27.7,-8.167,442.9
AGM00060670,"TISKA, AG",24.293,9.452,968.0
AGM00060690,"IN GUEZZAM, AG",19.567,5.767,401.0
AJ000037575,"ZAKATALA, AJ",41.55,46.667,490.0
AJ000037675,"GUBA, AJ",41.367,48.517,552.0
AJ000037735,"GANCA, AJ",40.7167,46.4167,311.0
AJ000037747,"EVLAKH AIRPORT, AJ",40.617,47.15,15.0
AJ000037749,"GOYCHAY, AJ",40.65,47.75,95.0
AJ000037756,"MARAZA, AJ",40.533,48.933,755.0
AJ000037907,"FIZULY, AJ",39.6,47.15,439.0
AJ000037985,"LANKARAN, AJ",38.75,48.817,-12.0
ALM00013615,"TIRANA RINAS, AL",41.415,19.721,38.4
AM000037618,"TASHIR, AM",41.117,44.283,1509.0
AM000037682,"AMASIA, AM",40.783,43.833,1866.0
AM000037699,"APARAN, AM",40.533,44.383,1892.0
AM000037704,"VANADZOR, AM",40.817,44.5,1379.0
AM000037711,"IDJEVAN, AM",40.867,45.15,733.0
AM000037787,"ARMAVIR, AM",40.133,44.05,865.0
AM000037792,"HRAZDAN, AM",40.483,44.75,1761.0
AM000037801,"GAVAR, AM",40.35,45.1331,1961.0
AM000037815,"MASRIK, AM",40.2,45.75,1940.0
AM000037897,"SISIAN, AM",39.533,46.017,1581.0
AM000037958,"MEGRI, AM",38.9,46.25,628.0
AMM00037717,"SEVAN OZERO, AM",40.567,45.0,1917.0
AO000066160,"LUANDA, AO",-8.85,13.233,74.0
AO000066390,"LUBANGO SA DA BAND, AO",-14.933,13.567,1761.0
AQC00914000,"AASUFOU, US",-14.31667,-170.76667,408.4
AQC00914594,"MALAELOA, US",-14.33333,-170.76667,42.4
AQW00061705,"PAGO PAGO WEATHER SERVICE OFFICE AIRPORT, US",-14.33056,-170.71361,3.7
AR000000011,"MONTE CASEROS AERO, AR",-30.267,-57.65,53.0
AR000087007,"LA QUIACA OBSERVATO, AR",-22.1,-65.6,3479.0
AR000087065,"RIVADAVIA, AR",-24.167,-62.9,205.0
AR000087078,"LAS LOMITAS, AR",-24.7,-60.583,130.0
AR000087129,"SANTIAGO DEL ESTERO, AR",-27.767,-64.3,200.0
AR000087155,"RESISTENCIA AERO, AR",-27.45,-59.05,53.0
AR000087217,"LA RIOJA AERO., AR",-29.383,-66.817,438.0
AR000087257,"CERES AERO, AR",-29.883,-61.95,88.0
AR000087344,"CORDOBA AERO, AR",-31.317,-64.217,489.0
AR000087374,"PARANA AERO, AR",-31.783,-60.483,74.0
AR000087418,"MENDOZA AERO, AR",-32.833,-68.783,704.0
AR000087534,"LABOULAYE AERO, AR",-34.133,-63.367,137.0
AR000087623,"SANTA ROSA AERO, AR",-36.567,-64.266,192.0
AR000087692,"MAR DEL PLATA AERO, AR",-37.933,-57.583,22.0
AR000087715,"NEUQUEN AERO, AR",-38.95,-68.133,273.0
AR000087803,"ESQUEL AERO, AR",-42.933,-71.15,799.0
AR000087828,"TRELEW AERO, AR",-43.2,-65.266,43.0
AR000087860,"COMODORO RIVADAVIA, AR",-45.783,-67.5,58.0
AR000087925,"RIO GALLEGOS AERO, AR",-51.617,-69.283,19.0
AR000870470,"SALTA AERO, AR",-24.85,-65.483,1246.0
AR000875440,"PEHUAJO AERO, AR",-35.867,-61.9,85.0
AR000875850,"BUENOS AIRES OBSERV, AR",-34.583,-58.483,25.0
AR000877500,"BAHIA BLANCA AERO, AR",-38.733,-62.167,75.0
ARM00087016,"ORAN, AR",-23.153,-64.329,356.0
ARM00087022,"GENERAL ENRIQUE MOSCONI TARTA, AR",-22.62,-63.794,449.0
ARM00087046,"JUJUY, AR",-24.393,-65.098,920.2
ARM00087121,"TENIENTE BENJAMIN MATIENZO, AR",-26.841,-65.105,455.7
ARM00087148,"PRESIDENCIA ROQUE SAENZ PENA, AR",-26.733,-60.483,93.0
ARM00087162,"FORMOSA, AR",-26.213,-58.228,59.1
ARM00087166,"CORRIENTES, AR",-27.446,-58.762,61.9
ARM00087178,"POSADAS, AR",-27.386,-55.971,131.1
ARM00087222,"CATAMARCA, AR",-28.596,-65.752,463.9
ARM00087244,"VILLA MARIA DEL RIO, AR",-29.9,-63.683,341.0
ARM00087289,"PASO DE LOS LIBRES, AR",-29.689,-57.152,70.1
ARM00087311,"SAN JUAN, AR",-31.571,-68.418,597.1
ARM00087328,"VILLA DOLORES, AR",-31.945,-65.146,583.7
ARM00087345,"CORDOBA OBSERVATORIO, AR",-31.4,-64.183,426.0
ARM00087349,"PILAR OBSERVATORIO, AR",-31.667,-63.883,338.0
ARM00087395,"COMODORO PIERRESTEGUI, AR",-31.297,-57.997,34.1
ARM00087416,"SAN MARTIN, AR",-33.083,-68.417,653.0
ARM00087420,"MENDOZA OBSERVATORIO, AR",-32.883,-68.85,827.0
ARM00087436,"SAN LUIS, AR",-33.273,-66.356,709.9
ARM00087448,"VILLA REYNOLDS, AR",-33.73,-65.387,484.9
ARM00087453,"RIO CUARTO AREA DE MATERIAL, AR",-33.085,-64.261,420.9
ARM00087467,"MARCOS JUAREZ, AR",-32.684,-62.158,110.0
ARM00087480,"ROSARIO, AR",-32.904,-60.785,25.9
ARM00087497,"GUALEGUAYCHU, AR",-33.01,-58.613,22.9
ARM00087506,"MALARGUE, AR",-35.494,-69.574,1430.1
ARM00087509,"SAN RAFAEL, AR",-34.588,-68.403,752.9
ARM00087532,"GENERAL PICO, AR",-35.696,-63.758,139.9
ARM00087548,"JUNIN, AR",-34.546,-60.931,79.9
ARM00087550,"NUEVE DE JULIO, AR",-35.45,-60.883,76.0
ARM00087563,"LAS FLORES, AR",-36.067,-59.1,38.0
ARM00087576,"MINISTRO PISTARINI, AR",-34.822,-58.536,20.4
ARM00087582,"AEROPARQUE JORGE NEWBERY, AR",-34.559,-58.416,5.5
ARM00087593,"LA PLATA, AR",-34.972,-57.895,21.9
ARM00087596,"PUNTA INDIO B.A., AR",-35.367,-57.283,22.0
ARM00087637,"CORONEL SUAREZ AERO, AR",-37.433,-61.883,233.0
ARM00087640,"BOLIVAR AERO, AR",-36.2,-61.067,94.0
ARM00087641,"AZUL AERO, AR",-36.833,-59.883,147.0
ARM00087643,"OLAVARRIA AERO, AR",-36.883,-60.217,166.0
ARM00087645,"TANDIL, AR",-37.237,-59.228,175.0
ARM00087648,"DOLORES AIRPORT, AR",-36.35,-57.733,9.0
ARM00087679,"PIGUE AIRPORT, AR",-37.6,-62.383,304.0
ARM00087688,"TRES ARROYOS, AR",-38.387,-60.33,121.9
ARM00087765,"SAN CARLOS DE BARILOCHE, AR",-41.151,-71.158,846.1
ARM00087774,"MAQUINCHAO, AR",-41.25,-68.733,888.0
ARM00087784,"SAN ANTONIO OESTE AERO, AR",-40.783,-65.1,20.0
ARM00087791,"GOBERNADOR CASTELLO, AR",-40.869,-63.0,6.1
ARM00087800,"EL BOLSON, AR",-41.943,-71.532,344.7
ARM00087814,"PASO DE INDIOS, AR",-43.817,-68.883,460.0
ARM00087852,"PERITO MORENO AIRPORT, AR",-46.517,-71.017,429.0
ARM00087896,"PUERTO DESEADO, AR",-47.735,-65.904,81.1
ARM00087904,"EL CALAFATE AERO, AR",-50.267,-72.05,204.0
ARM00087909,"SAN JULIAN, AR",-49.307,-67.803,57.9
ARM00087934,"RIO GRANDE, AR",-53.778,-67.749,19.8
ARM00087938,"USHUAIA MALVINAS ARGENTINAS, AR",-54.843,-68.296,21.6
ASM00094299,"WILLIS ISLAND, AS",-16.288,149.965,9.0
ASM00094995,"LORD HOWE ISLAND AERO, AS",-31.542,159.079,7.0
ASM00094998,"MACQUARIE ISLAND, AS",-54.499,158.937,8.3
ASN00001006,"WYNDHAM AERO, AS",-15.51,128.1503,3.8
ASN00001007,"TROUGHTON ISLAND, AS",-13.7542,126.1485,6.0
ASN00001010,"THEDA, AS",-14.7883,126.4964,210.0
ASN00001019,"KALUMBURU, AS",-14.2964,126.6453,23.0
ASN00001020,"TRUSCOTT, AS",-14.09,126.3867,51.0
ASN00001025,"DOONGAN, AS",-15.3797,126.3114,385.0
ASN00001026,"DRYSDALE RIVER STATION, AS",-15.7025,126.3786,370.0
ASN00001035,"PARRY CREEK FARM, AS",-15.5969,128.2781,20.0
ASN00002009,"GIBB RIVER, AS",-16.4203,126.4411,488.0
ASN00002012,"HALLS CREEK AIRPORT, AS",-18.2292,127.6636,422.0
ASN00002021,"MOUNT AMHURST, AS",-18.3869,126.9892,300.0
ASN00002022,"MOUNT WINIFRED, AS",-18.016,126.3033,180.0
ASN00002030,"YULMBU, AS",-17.2964,126.915,450.0
ASN00002032,"WARMUN, AS",-17.0156,128.2175,203.0
ASN00002036,"OLD MORNINGTON HOMESTEAD, AS",-17.3922,126.2306,280.0
ASN00002043,"MOUNT KRAUSS, AS",-18.3368,126.1243,160.0
ASN00002051,"BILLILUNA, AS",-19.5561,127.6644,305.0
ASN00002053,"LANSDOWNE, AS",-17.6133,126.7442,400.0
ASN00002056,"KUNUNURRA AERO, AS",-15.7814,128.71,44.0
ASN00002064,"ARGYLE AERODROME, AS",-16.6381,128.4517,164.0
ASN00003003,"BROOME AIRPORT, AS",-17.9475,122.2353,7.4
ASN00003019,"NAPIER DOWNS, AS",-17.3306,124.8167,80.0
ASN00003024,"UDIALLA, AS",-17.9464,123.7383,20.0
ASN00003030,"BIDYADANGA, AS",-18.6844,121.7803,11.0
ASN00003032,"DERBY AERO, AS",-17.3706,123.6611,6.2
ASN00003051,"MOUNT BARNETT, AS",-16.7372,125.9086,401.0
ASN00003057,"CYGNET BAY, AS",-16.4514,123.0086,7.0
ASN00003080,"CURTIN AERO, AS",-17.5736,123.8217,77.5
ASN00003084,"DERBY MANNING RD, AS",-17.3436,123.6781,10.0
ASN00003090,"DEBESA, AS",-17.7981,124.0772,100.0
ASN00003093,"FITZROY CROSSING AERO, AS",-18.1814,125.5619,114.5
ASN00003098,"MOUNT HOUSE AIRSTRIP, AS",-17.0549,125.7108,270.0
ASN00004019,"MANDORA, AS",-19.7419,120.8436,7.5
ASN00004032,"PORT HEDLAND AIRPORT, AS",-20.3725,118.6317,6.4
ASN00004083,"KARRATHA AERO, AS",-20.7097,116.7742,7.0
ASN00004090,"ROEBOURNE AERO, AS",-20.7594,117.1583,10.7
ASN00004102,"MEENTHEENA, AS",-21.2933,120.4658,220.0
ASN00004106,"MARBLE BAR, AS",-21.1756,119.7497,182.3
ASN00005007,"LEARMONTH AIRPORT, AS",-22.2406,114.0967,5.0
ASN00005008,"MARDIE, AS",-21.1906,115.9797,11.0
ASN00005012,"MILLSTREAM, AS",-21.5906,117.0656,300.0
ASN00005017,"ONSLOW AIRPORT, AS",-21.6689,115.1092,10.5
ASN00005029,"YALLEEN, AS",-21.6767,116.3928,180.0
ASN00005051,"EXMOUTH TOWN, AS",-21.9303,114.1256,13.0
ASN00005084,"THEVENARD ISLAND, AS",-21.4606,115.0197,5.0
ASN00005094,"BARROW ISLAND AIRPORT, AS",-20.875,115.4056,6.4
ASN00006011,"CARNARVON AIRPORT, AS",-24.8878,113.67,4.0
ASN00006020,"EDAGGEE, AS",-25.36,114.2292,30.0
ASN00006044,"DENHAM, AS",-25.9261,113.5319,9.0
ASN00006055,"WOOLGORONG, AS",-27.7458,115.8286,300.0
ASN00006072,"EMU CREEK STATION, AS",-23.0314,115.0414,111.0
ASN00006099,"MURCHISON, AS",-26.8936,115.9561,287.0
ASN00006105,"SHARK BAY AIRPORT, AS",-25.8925,113.5772,33.8
ASN00007008,"BRYAH, AS",-25.5067,118.7933,550.0
ASN00007045,"MEEKATHARRA AIRPORT, AS",-26.6136,118.5372,517.0
ASN00007139,"PAYNES FIND, AS",-29.2708,117.6836,339.0
ASN00007176,"NEWMAN AERO, AS",-23.4169,119.7989,524.0
ASN00007185,"PARABURDOO AERO, AS",-23.1725,117.7494,423.7
ASN00007600,"MOUNT MAGNET AERO, AS",-28.1156,117.8425,407.0
ASN00008005,"BARBERTON, AS",-30.7294,116.02,200.0
ASN00008008,"BERKSHIRE VALLEY, AS",-30.5831,116.135,230.0
ASN00008014,"DALWALLINU NORTH, AS",-30.2192,116.7783,300.0
ASN00008022,"BALGERBINE, AS",-30.2911,116.3306,300.0
ASN00008025,"CARNAMAH, AS",-29.6889,115.8869,268.0
ASN00008028,"NABAWA, AS",-28.5008,114.7897,145.0
ASN00008037,"COOROW, AS",-29.8819,116.0233,280.0
ASN00008039,"DALWALLINU COMPARISON, AS",-30.2772,116.6619,335.0
ASN00008050,"GERALDTON TOWN, AS",-28.7769,114.605,3.0
ASN00008051,"GERALDTON AIRPORT, AS",-28.7953,114.6975,33.0
ASN00008057,"GREEN GROVE, AS",-29.5486,115.0689,30.0
ASN00008060,"SOUTH HOLMWOOD, AS",-29.0364,115.5536,240.0
ASN00008065,"ISSEKA, AS",-28.4292,114.6542,180.0
ASN00008072,"LATHAM, AS",-29.7586,116.4444,290.0
ASN00008079,"MANARRA, AS",-29.0711,115.6261,260.0
ASN00008087,"MINDALLA, AS",-30.4228,116.4583,300.0
ASN00008088,"MINGENEW, AS",-29.1906,115.4414,153.0
ASN00008095,"MULLEWA, AS",-28.5367,115.5142,268.0
ASN00008100,"NORTHAMPTON, AS",-28.3456,114.6367,180.0
ASN00008113,"RIVERSIDE, AS",-27.8325,114.7364,200.0
ASN00008121,"THREE SPRINGS, AS",-29.5339,115.7628,249.0
ASN00008137,"WONGAN HILLS, AS",-30.8917,116.7186,283.0
ASN00008143,"YANDANOOKA, AS",-29.2872,115.6331,210.0
ASN00008157,"CANNA, AS",-28.8978,115.8628,340.0
ASN00008168,"HOWATHARRA, AS",-28.5467,114.6244,70.0
ASN00008202,"BINDI BINDI NORTH, AS",-30.6219,116.3794,300.0
ASN00008230,"ELENA, AS",-30.3817,116.7217,290.0
ASN00008237,"TENINDEWA, AS",-28.6857,115.2806,260.0
ASN00008238,"HAKEA, AS",-30.0989,116.2339,350.0
ASN00008240,"COOLANGATTA, AS",-28.8939,115.4539,244.0
ASN00008251,"KALBARRI, AS",-27.7119,114.165,6.0
ASN00008254,"KONDUT, AS",-30.7092,116.7744,280.0
ASN00008264,"WANARRA, AS",-29.5147,116.8011,290.0
ASN00008271,"NINDETHANA FARM, AS",-28.8114,115.9675,340.0
ASN00008273,"ARENA, AS",-29.3586,115.4503,280.0
ASN00008274,"NARALING, AS",-28.4194,114.8186,200.0
ASN00008283,"KARAWA, AS",-30.1453,116.3844,320.0
ASN00008286,"WUNDI, AS",-28.275,114.6761,200.0
ASN00008288,"GHURKA, AS",-28.2575,114.6033,200.0
ASN00008290,"NORTH ISLAND, AS",-28.3008,113.5936,2.2
ASN00008295,"STRAWBERRY, AS",-29.2094,115.2628,105.0
ASN00008296,"MORAWA AIRPORT, AS",-29.2039,116.0247,271.4
ASN00008297,"DALWALLINU, AS",-30.2761,116.6714,324.5
ASN00008298,"TIBRADDEN, AS",-28.7597,114.937,265.0
ASN00008299,"ARRADALE, AS",-29.1103,115.3173,270.0
ASN00008300,"TABLETOP, AS",-29.0692,115.0915,240.0
ASN00008304,"MOASCAR, AS",-28.9571,114.9492,254.0
ASN00008305,"PORT DENISON, AS",-29.2778,114.9464,20.0
ASN00008307,"COOLANGATTA ALERT, AS",-28.89,115.4397,260.0
ASN00008308,"TARDUN HILL, AS",-28.8,115.76,340.0
ASN00008309,"BELLENDAINE, AS",-29.3,115.6597,240.0
ASN00008310,"SOUTH HOLMWOOD ALERT, AS",-29.0291,115.5548,260.0
ASN00009000,"ARALUEN, AS",-32.1247,116.1025,130.0
ASN00009007,"CHIDLOW, AS",-31.8622,116.2658,300.0
ASN00009009,"LOWER CHITTERING, AS",-31.605,116.1114,100.0
ASN00009015,"KARRAGULLEN NORTH, AS",-32.0892,116.125,330.0
ASN00009018,"GINGIN, AS",-31.3461,115.9031,92.0
ASN00009021,"PERTH AIRPORT, AS",-31.9275,115.9764,15.4
ASN00009023,"JARRAHDALE, AS",-32.3342,116.0755,240.0
ASN00009024,"MARBLING, AS",-31.5608,116.0842,150.0
ASN00009030,"MUNDARING, AS",-31.8972,116.1575,300.0
ASN00009033,"NEW NORCIA, AS",-30.9719,116.2089,220.0
ASN00009037,"BADGINGARRA RESEARCH STATION, AS",-30.3381,115.5394,275.0
ASN00009039,"SERPENTINE, AS",-32.3536,116.005,120.0
ASN00009040,"WANNAMAL, AS",-31.1428,116.0539,170.0
ASN00009053,"PEARCE RAAF, AS",-31.6669,116.0189,40.0
ASN00009066,"GIDGEGANNUP, AS",-31.7908,116.1975,290.0
ASN00009105,"WANNEROO, AS",-31.7317,115.7931,30.0
ASN00009111,"KARNET, AS",-32.44,116.0744,286.0
ASN00009112,"BINDOON, AS",-31.3928,116.0875,160.0
ASN00009113,"ROLEYSTONE, AS",-32.1108,116.0953,250.0
ASN00009131,"JURIEN BAY, AS",-30.3081,115.0311,1.6
ASN00009172,"JANDAKOT AERO, AS",-32.1011,115.8794,30.0
ASN00009178,"GINGIN AERO, AS",-31.4628,115.8642,73.0
ASN00009182,"MAIDA VALE, AS",-31.9544,116.0014,25.0
ASN00009193,"ROTTNEST ISLAND, AS",-32.0069,115.5022,43.1
ASN00009199,"LEEMAN, AS",-29.9486,114.9781,2.0
ASN00009207,"PICKERING BROOK NORTH, AS",-32.0208,116.1167,220.0
ASN00009210,"LAKE NAMMEN, AS",-30.8928,115.5789,70.0
ASN00009215,"SWANBOURNE, AS",-31.9558,115.7619,41.0
ASN00009225,"PERTH METRO, AS",-31.9192,115.8728,24.9
ASN00009240,"BICKLEY, AS",-32.0056,116.1364,384.0
ASN00009243,"WOODRIDGE ESTATE, AS",-31.335,115.5722,30.0
ASN00009248,"MOONDAH BROOK, AS",-31.332,115.9513,113.0
ASN00009256,"GARDEN ISLAND HSF, AS",-32.2433,115.6839,6.0
ASN00009257,"FORRESTDALE, AS",-32.1569,115.9275,20.0
ASN00009258,"ANKETELL, AS",-32.2156,115.8758,18.0
ASN00009260,"MOUNT SOLUS, AS",-32.4697,116.2143,574.0
ASN00009264,"TAMALA PARK MINDARIE, AS",-31.7078,115.7242,20.0
ASN00009276,"NAMBUNG STATION, AS",-30.5744,115.2231,42.0
ASN00009500,"ALBANY, AS",-35.0289,117.8808,3.0
ASN00009507,"BANNISTER, AS",-32.6836,116.5194,350.0
ASN00009513,"BRUNSWICK JUNCTION, AS",-33.2136,115.85,30.0
ASN00009515,"BUSSELTON SHIRE, AS",-33.6611,115.3456,4.0
ASN00009518,"CAPE LEEUWIN, AS",-34.3728,115.1358,13.0
ASN00009519,"CAPE NATURALISTE, AS",-33.5372,115.0189,109.0
ASN00009527,"DARDANUP EAST, AS",-33.3969,115.7833,40.0
ASN00009534,"DONNYBROOK, AS",-33.5719,115.8247,63.0
ASN00009538,"DWELLINGUP, AS",-32.7103,116.0594,267.0
ASN00009542,"ESPERANCE AERO, AS",-33.6825,121.8275,142.0
ASN00009547,"FOREST GROVE, AS",-34.0717,115.0986,60.0
ASN00009557,"HOPETOUN, AS",-33.9497,120.1258,15.0
ASN00009561,"KENDENUP, AS",-34.4878,117.6278,262.0
ASN00009573,"MANJIMUP, AS",-34.2508,116.145,286.7
ASN00009575,"MARRADONG, AS",-32.8556,116.45,250.0
ASN00009579,"OAKE MARSH FARM, AS",-33.7633,122.0675,60.0
ASN00009584,"MYRUP, AS",-33.7422,121.995,60.0
ASN00009585,"NANNUP, AS",-33.9797,115.7656,100.0
ASN00009587,"NEWBICUP, AS",-33.9967,116.4253,240.0
ASN00009589,"NORNALUP, AS",-34.9919,116.8206,60.0
ASN00009592,"PEMBERTON, AS",-34.4478,116.0433,174.0
ASN00009600,"ROSA BROOK, AS",-33.9525,115.1969,90.0
ASN00009603,"BUSSELTON AERO, AS",-33.6858,115.4008,16.3
ASN00009605,"TENTERDEN POST OFFICE, AS",-34.3667,117.55,289.0
ASN00009611,"WALPOLE, AS",-34.9761,116.7328,20.0
ASN00009613,"WARNER GLEN, AS",-34.1436,115.2261,30.0
ASN00009616,"WESTBOURNE, AS",-34.0911,116.6628,280.0
ASN00009617,"BRIDGETOWN, AS",-33.9486,116.1311,178.7
ASN00009619,"WILGARRUP, AS",-34.1519,116.2042,240.0
ASN00009626,"PLEASANT VALLEY, AS",-33.7106,121.5619,60.0
ASN00009628,"COLLIE, AS",-33.36,116.1467,204.0
ASN00009629,"MARRIWOOD, AS",-33.4464,115.7308,30.0
ASN00009633,"TAMAR, AS",-34.8644,118.1122,90.0
ASN00009635,"FRANKLAND, AS",-34.3633,117.0836,230.0
ASN00009636,"COWARAMUP, AS",-33.8358,115.0747,120.0
ASN00009647,"WEREROA, AS",-34.9506,117.2769,140.0
ASN00009678,"REDMOND, AS",-34.8772,117.6725,93.0
ASN00009692,"BIDELLIA, AS",-34.2258,115.7622,77.0
ASN00009710,"INNADONG, AS",-33.3,115.8,
ASN00009739,"TELINA DOWNS, AS",-33.6789,122.3311,170.0
ASN00009741,"ALBANY AIRPORT, AS",-34.9414,117.8022,68.0
ASN00009752,"DENBARKER, AS",-34.7233,117.3494,205.0
ASN00009754,"METTLER, AS",-34.5961,118.5519,120.0
ASN00009769,"CULFORD, AS",-32.5698,116.4385,335.0
ASN00009771,"YOONGARILLUP, AS",-33.7411,115.4697,60.0
ASN00009772,"ERINAIR, AS",-33.7608,121.2156,60.0
ASN00009776,"ASTON DOWNS ALERT, AS",-33.7931,115.3189,80.0
ASN00009784,"KIMBERLEY, AS",-34.9319,117.1606,80.0
ASN00009789,"ESPERANCE, AS",-33.83,121.8925,25.0
ASN00009801,"ALEXANDRA BRIDGE, AS",-34.1597,115.1892,20.0
ASN00009804,"ADINA, AS",-33.8811,122.2167,60.0
ASN00009805,"WALPOLE FORESTRY, AS",-34.9769,116.7286,15.0
ASN00009813,"MOUNT HOWICK, AS",-33.7297,122.755,110.0
ASN00009815,"THE DUKE, AS",-33.8819,122.5661,61.0
ASN00009822,"DALYUP PARK, AS",-33.7753,121.555,30.0
ASN00009831,"UPPER KING RIVER, AS",-34.9267,117.8731,30.0
ASN00009842,"JARRAHWOOD, AS",-33.7964,115.6658,130.0
ASN00009850,"CARBARUP, AS",-34.5378,117.7197,245.0
ASN00009852,"CHEYNE BEACH, AS",-34.8883,118.3958,60.0
ASN00009865,"WARRA JARRA, AS",-34.3997,118.8867,90.0
ASN00009868,"MUNGLINUP, AS",-33.7078,120.8653,80.0
ASN00009871,"WINDY HARBOUR, AS",-34.8361,116.0308,4.5
ASN00009877,"LUDLOW, AS",-33.6033,115.4983,15.0
ASN00009891,"PINJARRA REFINERY, AS",-32.64,115.9461,45.0
ASN00009897,"CAPE ARID NATIONAL PARK, AS",-33.8536,123.0069,70.0
ASN00009899,"KARRALEA, AS",-34.8883,118.0789,80.0
ASN00009904,"WALTERS FARM, AS",-34.5967,116.1072,90.0
ASN00009908,"ONE TREE BRIDGE HAZELMERE, AS",-34.2292,115.9294,200.0
ASN00009909,"ASTON DOWNS, AS",-33.7914,115.3189,80.0
ASN00009912,"FERGUSON VALLEY, AS",-33.445,115.8508,120.0
ASN00009917,"PERIVALE ORCHARD, AS",-33.7058,115.7878,100.0
ASN00009923,"WORSLEY DOWNS, AS",-33.3169,115.9892,240.0
ASN00009927,"THE WOLD LOWDEN, AS",-33.6028,116.0128,220.0
ASN00009928,"VERMEULEN, AS",-34.8389,116.7211,180.0
ASN00009936,"HUNTLY, AS",-32.6239,116.0603,320.0
ASN00009957,"PEACEFUL BAY, AS",-35.0367,116.9247,10.0
ASN00009958,"KARRIVALE, AS",-34.6625,117.8394,322.0
ASN00009961,"HOPETOUN NORTH, AS",-33.9306,120.1283,26.0
ASN00009964,"ROCKY GULLY, AS",-34.5714,117.0106,250.0
ASN00009965,"BUNBURY, AS",-33.3567,115.6447,5.2
ASN00009967,"NARRIKUP WEST, AS",-34.7772,117.6508,130.0
ASN00009968,"SHANNON, AS",-34.5683,116.3367,210.0
ASN00009971,"ACTON PARK, AS",-33.7844,115.4075,120.0
ASN00009976,"PINJARRA SOUTH, AS",-32.6453,115.8644,13.0
ASN00009977,"MANDURAH, AS",-32.5219,115.7119,3.0
ASN00009978,"JINDONG, AS",-33.7563,115.2096,42.0
ASN00009979,"CORAMUP, AS",-33.7622,121.9336,58.0
ASN00009982,"HENTY BROOK, AS",-33.3878,115.8538,240.0
ASN00009987,"PAYNEDALE ALERT, AS",-33.6414,115.7028,80.0
ASN00009988,"HAPPY VALLEY, AS",-33.6808,115.6242,100.0
ASN00009989,"THOMSON BROOK, AS",-33.6458,115.9553,260.0
ASN00009990,"BOYANUP NORTH, AS",-33.4775,115.7393,40.0
ASN00009991,"DONNYBROOK EAST, AS",-33.5711,115.8383,120.0
ASN00009992,"CAPEL NORTH, AS",-33.5435,115.5509,20.0
ASN00009994,"COLLIE EAST, AS",-33.3608,116.1717,200.0
ASN00009997,"RAVENSCLIFFE ALERT, AS",-33.7647,115.8431,200.0
ASN00009998,"NORTH WALPOLE, AS",-34.9469,116.7222,73.0
ASN00010000,"AMERY ACRES, AS",-31.1675,117.0736,340.0
ASN00010007,"BENCUBBIN, AS",-30.8081,117.8603,359.0
ASN00010011,"BONNIE ROCK, AS",-30.4731,118.3819,430.0
ASN00010012,"BOODJERAKINE, AS",-31.5278,117.4361,260.0
ASN00010031,"YORKRAKINE TM, AS",-31.3742,117.5861,300.0
ASN00010032,"COWCOWING, AS",-30.9964,117.3953,300.0
ASN00010040,"DOODLAKINE, AS",-31.6089,117.8775,251.0
ASN00010041,"DOONGIN PEAK, AS",-31.6192,117.4372,250.0
ASN00010043,"CALJIE, AS",-31.7661,116.9167,219.0
ASN00010053,"FRIARS WELL, AS",-31.7233,118.4372,300.0
ASN00010058,"GOOMALLING, AS",-31.2994,116.8269,239.0
ASN00010061,"HAPPY VALLEY, AS",-31.1417,116.9558,300.0
ASN00010064,"BOLGART BIN, AS",-31.2747,116.5075,240.0
ASN00010070,"KALANNIE, AS",-30.3686,117.1133,340.0
ASN00010073,"KELLERBERRIN, AS",-31.6183,117.7217,250.0
ASN00010082,"KUNUNOPPIN, AS",-31.1125,117.9186,290.0
ASN00010092,"MERREDIN, AS",-31.4756,118.2789,315.0
ASN00010097,"MONINGARIN, AS",-30.6569,117.2625,375.0
ASN00010102,"MUKINBUDIN, AS",-30.9153,118.2028,309.0
ASN00010111,"NORTHAM, AS",-31.6508,116.6586,170.0
ASN00010118,"BREAKELL, AS",-31.9917,118.0264,260.0
ASN00010124,"NANGEENAN, AS",-31.5136,118.1753,280.0
ASN00010134,"WATTENING, AS",-31.3119,116.515,240.0
ASN00010135,"WIALKI, AS",-30.4869,118.1258,390.0
ASN00010138,"WOOROLOO, AS",-31.814,116.341,277.0
ASN00010143,"YGNATTERING, AS",-31.415,117.2664,295.0
ASN00010145,"YORKRAKINE, AS",-31.3756,117.5853,300.0
ASN00010149,"CODG CODGEN, AS",-31.3361,117.8164,320.0
ASN00010150,"GRASS VALLEY, AS",-31.6358,116.7961,200.0
ASN00010151,"HINES HILL, AS",-31.5317,118.0986,270.0
ASN00010192,"JOURERDINE, AS",-30.5539,118.2828,435.0
ASN00010230,"WAEEL, AS",-31.65,117.1,
ASN00010286,"CUNDERDIN AIRFIELD, AS",-31.6219,117.2217,216.7
ASN00010304,"NUNILE, AS",-31.485,116.5383,280.0
ASN00010307,"QUADNEY, AS",-31.7936,116.6278,310.0
ASN00010308,"TOODYAY EAST, AS",-31.55,116.4867,150.0
ASN00010310,"WERRIBEE, AS",-31.7647,116.3464,295.0
ASN00010311,"YORK, AS",-31.8997,116.765,179.0
ASN00010502,"AMELUP, AS",-34.2553,118.2214,210.0
ASN00010503,"ARDATH, AS",-32.0311,118.0947,280.0
ASN00010508,"BADGEBUP, AS",-33.6361,117.9278,300.0
ASN00010511,"WICKEPIN SOUTH, AS",-32.8022,117.5025,380.0
ASN00010513,"BENDERING, AS",-32.3869,118.2622,300.0
ASN00010515,"BEVERLEY, AS",-32.1083,116.9247,199.0
ASN00010519,"BORDEN, AS",-34.0717,118.2628,220.0
ASN00010520,"BOSCABEL, AS",-33.6614,117.0539,260.0
ASN00010524,"BROOKTON, AS",-32.3725,117.0072,250.0
ASN00010527,"BULYEE, AS",-32.3756,117.5128,250.0
ASN00010530,"CHAMINGUP, AS",-33.9144,117.0994,320.0
ASN00010531,"CHERRY TREE, AS",-33.7069,117.2411,295.0
ASN00010534,"COLORADO, AS",-32.4825,117.5647,270.0
ASN00010536,"CORRIGIN, AS",-32.3292,117.8733,295.0
ASN00010537,"CRANBROOK, AS",-34.2961,117.5533,255.0
ASN00010541,"NYERILUP, AS",-33.8594,118.8158,280.0
ASN00010542,"DARKAN, AS",-33.3347,116.7425,280.0
ASN00010546,"DUMBLEYUNG, AS",-33.3142,117.74,270.0
ASN00010556,"COONDEE, AS",-32.4797,116.8167,262.0
ASN00010558,"GNOWANGERUP, AS",-33.9372,118.0075,260.0
ASN00010560,"GRAHAM ROCK, AS",-32.5403,119.1122,320.0
ASN00010564,"HILLCROFT, AS",-32.3472,116.8553,265.0
ASN00010565,"HOLT ROCK, AS",-32.6744,119.4144,320.0
ASN00010568,"HYDEN, AS",-32.4419,118.8983,299.0
ASN00010571,"JALNA, AS",-32.3789,116.8258,235.0
ASN00010582,"KOJONUP, AS",-33.83,117.159,305.0
ASN00010603,"HARTWOOD, AS",-32.4231,118.2003,260.0
ASN00010614,"NARROGIN, AS",-32.9342,117.1797,338.0
ASN00010617,"NEWDEGATE, AS",-33.0939,119.0236,300.0
ASN00010619,"NYABING, AS",-33.5417,118.1489,330.0
ASN00010622,"ONGERUP, AS",-33.9644,118.4889,286.0
ASN00010626,"PINGELLY, AS",-32.5336,117.0831,297.0
ASN00010627,"PINGRUP, AS",-33.5347,118.5092,280.0
ASN00010628,"QUAIRADING, AS",-32.0094,117.4014,250.0
ASN00010633,"RAVENSTHORPE, AS",-33.5803,120.0458,232.0
ASN00010635,"RIVERDALE, AS",-33.7853,116.9064,260.0
ASN00010643,"TAMBELLUP, AS",-34.0444,117.6419,260.0
ASN00010647,"WAGIN, AS",-33.3075,117.3403,256.0
ASN00010692,"NEWDEGATE RESEARCH STATION, AS",-33.1131,118.84,320.0
ASN00010729,"CHILLINUP, AS",-34.3439,118.6306,104.0
ASN00010803,"MARIA, AS",-33.0114,118.2389,340.0
ASN00010811,"NTH RAVENSTHORPE, AS",-33.1806,120.0883,340.0
ASN00010831,"GLENROSE, AS",-33.4836,117.61,330.0
ASN00010866,"CRANHAM, AS",-33.9317,117.3258,340.0
ASN00010872,"DUNELM, AS",-33.1722,118.2475,300.0
ASN00010876,"CAERNARVON PARK, AS",-32.7353,116.8381,260.0
ASN00010878,"CHESALON, AS",-33.5381,119.6564,350.0
ASN00010889,"MORDETTA, AS",-32.885,118.6347,320.0
ASN00010904,"SWANARA, AS",-32.1717,118.6136,305.0
ASN00010905,"JACUP, AS",-33.8878,119.1092,305.0
ASN00010908,"YANGEDINE, AS",-32.0294,116.8742,260.0
ASN00010911,"LAKE GRACE, AS",-33.1006,118.4647,286.0
ASN00010912,"YEALERING EAST, AS",-32.5878,117.6408,280.0
ASN00010916,"KATANNING, AS",-33.6856,117.6064,320.0
ASN00010917,"WANDERING, AS",-32.6722,116.6706,275.0
ASN00011003,"EUCLA, AS",-31.6797,128.8792,93.1
ASN00011019,"EYRE, AS",-32.2464,126.3008,5.6
ASN00011022,"OLD EUCLA, AS",-31.7117,128.8867,5.0
ASN00011052,"FORREST, AS",-30.8453,128.1092,159.0
ASN00011053,"RED ROCKS POINT, AS",-32.2028,127.5297,3.1
ASN00012009,"NORSEMAN AERO, AS",-32.2147,121.7547,262.5
ASN00012011,"BULLFINCH, AS",-30.9869,119.1142,362.0
ASN00012025,"DEPOT SPRINGS, AS",-27.9331,120.0575,441.0
ASN00012038,"KALGOORLIE BOULDER AIRPORT, AS",-30.7847,121.4533,365.3
ASN00012044,"MUNGLINUP WEST, AS",-33.5547,120.6997,220.0
ASN00012064,"NOONGAAR, AS",-31.3356,118.98,440.0
ASN00012071,"SALMON GUMS RES.STN., AS",-32.9869,121.6239,249.0
ASN00012079,"TURKEY HILL NORTH, AS",-31.0381,119.3064,380.0
ASN00012239,"BULGA DOWNS, AS",-28.4967,119.7436,438.5
ASN00012240,"ILKURLKA, AS",-28.3514,127.5169,410.0
ASN00012241,"LEONORA AERO, AS",-28.8789,121.3186,370.0
ASN00012280,"BANJAWARN, AS",-27.7036,121.6131,550.0
ASN00012297,"BEAUMONT WEST, AS",-33.4853,122.5867,180.0
ASN00012305,"LAVERTON AERO, AS",-28.6133,122.4236,464.3
ASN00012306,"SPARKLE HILL, AS",-33.5239,122.9469,140.0
ASN00012308,"MOUNT RIDLEY, AS",-33.3356,122.0697,180.0
ASN00012314,"LEINSTER AERO, AS",-27.8386,120.7031,497.0
ASN00012320,"SOUTHERN CROSS AIRFIELD, AS",-31.2353,119.3564,347.4
ASN00013005,"LORNA GLEN, AS",-26.2225,121.5561,550.0
ASN00013011,"WARBURTON AIRFIELD, AS",-26.1317,126.5839,459.0
ASN00013015,"CARNEGIE, AS",-25.7964,122.9753,448.0
ASN00013017,"GILES METEOROLOGICAL OFFICE, AS",-25.0341,128.301,598.0
ASN00013018,"WONGAWOL, AS",-26.1208,121.9403,500.0
ASN00013030,"TELFER AERO, AS",-21.7125,122.2281,291.9
ASN00014013,"GERIATRIC PARK, AS",-12.81,130.4576,23.0
ASN00014015,"DARWIN AIRPORT, AS",-12.4239,130.8925,30.4
ASN00014040,"DARWIN AIRPORT COMPARISON, AS",-12.4227,130.8844,30.0
ASN00014041,"MIDDLE POINT AWS, AS",-12.605,131.2988,14.1
ASN00014050,"FORT HILL WHARF, AS",-12.4706,130.8455,5.0
ASN00014055,"UPPER ADELAIDE RIVER, AS",-13.481,131.1173,206.0
ASN00014059,"FOELSCHE HEADLAND, AS",-14.0829,131.8099,203.0
ASN00014062,"EDITH FALLS RIDGE, AS",-14.1435,132.1925,242.0
ASN00014092,"ADELAIDE RIVER POST OFFICE, AS",-13.2373,131.1042,52.5
ASN00014112,"NIGHTCLIFF POOL, AS",-12.3786,130.8469,7.0
ASN00014142,"PIRLANGIMPI, AS",-11.4022,130.4217,18.3
ASN00014144,"MARRARA, AS",-12.3962,130.8785,16.0
ASN00014149,"HOWARD SPRINGS, AS",-12.4558,131.0505,34.0
ASN00014163,"DARWIN BOTANIC GARDENS, AS",-12.4396,130.8376,15.2
ASN00014183,"DARWIN RIVER DAM, AS",-12.8324,130.9713,100.0
ASN00014198,"JABIRU AIRPORT, AS",-12.6594,132.8939,26.5
ASN00014219,"MCMINNS LAGOON, AS",-12.5491,131.0794,35.0
ASN00014224,"WANDIE CREEK, AS",-13.8062,132.197,179.0
ASN00014226,"HUMPTY DOO COLLARD ROAD, AS",-12.5764,131.0829,30.0
ASN00014238,"WAGAIT BEACH, AS",-12.4346,130.7491,30.0
ASN00014239,"LABELLE DOWNS, AS",-13.1129,130.4937,45.0
ASN00014246,"LEANYER, AS",-12.3784,130.9057,10.0
ASN00014253,"CHANNEL POINT, AS",-13.1672,130.1225,3.0
ASN00014254,"POINT STUART AWS, AS",-12.2435,131.8785,1.0
ASN00014260,"EAST ARM, AS",-12.4819,130.8978,10.0
ASN00014265,"CSIRO BERRIMAH, AS",-12.4126,130.9202,30.0
ASN00014266,"THORAK CEMETERY, AS",-12.4121,130.9669,25.0
ASN00014272,"BATCHELOR AERO, AS",-13.0545,131.0252,104.0
ASN00014274,"MCCLUER ISLAND, AS",-11.0468,132.9791,1.4
ASN00014275,"WILDMAN RANGERS, AS",-12.7164,131.8206,55.0
ASN00014277,"DUM IN MIRRIE AWS, AS",-12.635,130.3725,3.5
ASN00014279,"WALKER CREEK, AS",-13.0807,130.6927,140.0
ASN00014285,"DARWIN HOSPITAL, AS",-12.3551,130.8857,20.0
ASN00014401,"WARRUWI, AS",-11.6502,133.3796,19.2
ASN00014404,"MILINGIMBI AWS, AS",-12.0931,134.8919,15.0
ASN00014405,"MANINGRIDA AERO, AS",-12.0569,134.2339,28.1
ASN00014508,"GOVE AIRPORT, AS",-12.2741,136.8203,51.6
ASN00014517,"NGAYAWILI, AS",-11.9971,135.5726,8.1
ASN00014518,"GROOTE EYLANDT AIRPORT AWS, AS",-13.9747,136.4631,13.7
ASN00014626,"DALY WATERS AWS, AS",-16.2636,133.3782,209.8
ASN00014627,"BULMAN AWS, AS",-13.6714,134.3414,103.4
ASN00014638,"GORRIE, AS",-15.527,132.6533,175.0
ASN00014647,"LAKEFIELD, AS",-15.2712,132.9127,160.0
ASN00014648,"WEST WATERHOUSE, AS",-14.134,133.1094,322.0
ASN00014651,"SNOWDROP CREEK, AS",-13.8269,133.3277,384.0
ASN00014652,"MARANBOY HILL, AS",-14.5264,132.8006,232.0
ASN00014653,"CONWAYS, AS",-14.2573,133.5942,135.0
ASN00014654,"CENTRAL WATERHOUSE, AS",-14.3295,133.1176,221.0
ASN00014703,"CENTRE ISLAND, AS",-15.7426,136.8192,12.2
ASN00014704,"MCARTHUR RIVER MINE, AS",-16.4423,136.076,40.0
ASN00014723,"BORROLOOLA, AS",-16.0757,136.3041,16.1
ASN00014729,"BING BONG PORT, AS",-15.6293,136.3881,4.0
ASN00014730,"UPPER WATERHOUSE RIVER, AS",-14.1055,133.3422,262.0
ASN00014806,"BIRRIMBA, AS",-16.4155,132.0857,209.0
ASN00014816,"OLD DELAMERE, AS",-15.7372,131.5345,102.0
ASN00014821,"ROSEWOOD, AS",-16.4583,129.0058,137.0
ASN00014825,"VICTORIA RIVER DOWNS, AS",-16.403,131.0145,88.5
ASN00014828,"SHOEING TOOL BORE, AS",-16.3896,131.5573,179.0
ASN00014829,"LAJAMANU, AS",-18.3325,130.6358,315.6
ASN00014830,"CATTLE CREEK, AS",-17.5966,131.5444,189.0
ASN00014854,"SUNSHINE BORE, AS",-17.8581,130.8841,250.0
ASN00014866,"UPPER VICTORIA RIVER, AS",-17.6129,130.0713,406.0
ASN00014867,"UPPER WICKHAM RIVER, AS",-16.9567,130.5675,242.0
ASN00014901,"DOUGLAS RIVER, AS",-13.8345,131.1872,42.8
ASN00014902,"KATHERINE COUNCIL, AS",-14.4589,132.2572,106.9
ASN00014906,"FISH RIVER, AS",-14.2,130.9,87.0
ASN00014909,"CENTRAL ARNHEM PLATEAU, AS",-13.3275,133.0861,416.0
ASN00014913,"ELIZABETH DOWNS, AS",-13.7447,130.4935,36.0
ASN00014932,"TINDAL RAAF, AS",-14.5229,132.3826,133.6
ASN00014947,"UPPER FERGUSSON RIVER, AS",-14.0106,132.2084,186.0
ASN00014948,"PORT KEATS AERO, AS",-14.2495,129.5282,28.0
ASN00014949,"DELAMERE WEAPONS RANGE, AS",-15.7442,131.9182,221.0
ASN00014950,"MOUNT FELIX, AS",-14.1243,132.6378,292.0
ASN00014954,"BRADSHAW, AS",-14.9408,130.8092,75.0
ASN00014956,"BONALBO, AS",-13.9487,131.3191,102.0
ASN00014962,"YEURALBA RIDGE, AS",-14.254,132.7357,282.0
ASN00014965,"UPPER SEVENTEEN MILE CREEK, AS",-14.1882,132.3961,220.0
ASN00014966,"NITMILUK RIDGE, AS",-14.3148,132.4248,212.0
ASN00014970,"FANNY CREEK, AS",-14.1084,132.9004,218.0
ASN00015131,"ELLIOTT, AS",-17.5521,133.5407,220.0
ASN00015135,"TENNANT CREEK AIRPORT, AS",-19.6423,134.1833,375.7
ASN00015508,"ALLAMBI, AS",-24.2691,134.4028,366.0
ASN00015511,"CURTIN SPRINGS, AS",-25.3139,131.7571,489.6
ASN00015531,"HERMANNSBURG, AS",-23.9409,132.7824,565.0
ASN00015548,"RABBIT FLAT, AS",-20.1883,130.0161,340.0
ASN00015585,"AMMAROO, AS",-21.7498,135.2382,396.0
ASN00015590,"ALICE SPRINGS AIRPORT, AS",-23.7951,133.889,546.0
ASN00015594,"ARLTUNGA, AS",-23.4564,134.6849,661.0
ASN00015602,"JERVOIS, AS",-22.9494,136.1442,328.0
ASN00015611,"NEWHAVEN, AS",-22.7228,131.1685,609.0
ASN00015619,"TODD RIVER, AS",-23.8398,134.5089,427.0
ASN00015626,"WOODGREEN, AS",-22.3961,134.2335,564.0
ASN00015633,"PALM VALLEY, AS",-24.0636,132.7444,520.0
ASN00015635,"YULARA AERO, AS",-25.1896,130.9737,492.0
ASN00015643,"TERRITORY GRAPE FARM, AS",-22.4518,133.6377,565.6
ASN00015652,"WATARRKA, AS",-24.2914,131.5488,614.0
ASN00015661,"MOUNT SKINNER, AS",-22.2109,134.1182,530.0
ASN00015664,"WALUNGURRU, AS",-23.27,129.38,454.3
ASN00015666,"RABBIT FLAT, AS",-20.1824,130.0148,340.0
ASN00016001,"WOOMERA AERODROME, AS",-31.1558,136.8054,166.6
ASN00016021,"KOKATHA, AS",-31.2609,135.2374,190.0
ASN00016024,"TARCOOLA LAKE EVERARD, AS",-31.7397,135.1722,200.0
ASN00016032,"NONNING, AS",-32.5226,136.4926,200.0
ASN00016055,"YARDEA, AS",-32.3792,135.5247,260.0
ASN00016056,"YUDNAPINNA, AS",-32.1232,137.1505,128.0
ASN00016065,"ANDAMOOKA, AS",-30.449,137.1692,76.0
ASN00016067,"MOUNT IVE, AS",-32.4398,136.0671,213.0
ASN00016090,"COOBER PEDY AIRPORT, AS",-29.0347,134.7222,225.0
ASN00016096,"ROXBY DOWNS OLYMPIC DAM AEROD, AS",-30.4829,136.8772,98.5
ASN00016097,"ERNABELLA PUKATJA, AS",-26.2635,132.1771,703.2
ASN00016098,"TARCOOLA AERO, AS",-30.7051,134.5786,123.0
ASN00017014,"BLINMAN, AS",-31.0939,138.6786,615.7
ASN00017024,"MARREE FARINA, AS",-30.066,138.2739,91.0
ASN00017032,"BLINMAN MOOLOOLOO, AS",-30.9904,138.5787,460.0
ASN00017037,"MULOORINA STATION MULOORINA H, AS",-29.239,137.9058,3.0
ASN00017041,"BLINMAN NARRINA, AS",-30.9372,138.8919,438.0
ASN00017043,"OODNADATTA AIRPORT, AS",-27.5553,135.4456,116.5
ASN00017054,"BLINMAN WIRREALPA, AS",-31.1278,138.9618,255.0
ASN00017055,"MARREE WITCHELINA, AS",-30.0213,138.0424,165.0
ASN00017098,"PARACHILNA MOTPENA, AS",-31.1881,138.2785,85.0
ASN00017099,"ARKAROOLA, AS",-30.311,139.3357,318.0
ASN00017110,"LEIGH CREEK AIRPORT, AS",-30.5963,138.4219,258.8
ASN00017119,"BELTANA ROADHOUSE, AS",-30.8406,138.3224,180.0
ASN00017123,"MOOMBA AIRPORT, AS",-28.0997,140.1956,37.8
ASN00017126,"MARREE AERO, AS",-29.6587,138.0684,50.0
ASN00017131,"GAMMON RANGES MOOLAWATANA, AS",-29.9062,139.7345,98.0
ASN00018005,"YEELANA BRIMPTON LAKE, AS",-34.0586,135.5036,62.0
ASN00018012,"CEDUNA AMO, AS",-32.1297,133.6976,15.3
ASN00018014,"CLEVE, AS",-33.7011,136.4937,193.0
ASN00018019,"COULTA, AS",-34.3853,135.4697,75.0
ASN00018022,"COWELL, AS",-33.6772,136.9116,12.0
ASN00018023,"CUMMINS, AS",-34.2644,135.7266,65.0
ASN00018024,"DARKE PEAK, AS",-33.4678,136.2113,165.0
ASN00018034,"IRON KNOB, AS",-32.7324,137.1505,158.0
ASN00018036,"KARCULTABY, AS",-32.7357,134.9709,134.0
ASN00018040,"KIMBA, AS",-33.1414,136.4125,280.0
ASN00018043,"KOPPIO, AS",-34.4139,135.8224,173.0
ASN00018044,"KYANCUTTA, AS",-33.1332,135.5552,57.0
ASN00018046,"LOCK, AS",-33.5679,135.7571,145.0
ASN00018054,"PORT KENNY MOUNT COOPER, AS",-33.0314,134.7015,150.0
ASN00018057,"MOUNT WUDINNA, AS",-32.9916,135.5482,178.0
ASN00018063,"PENONG, AS",-31.932,133.0056,16.0
ASN00018069,"ELLISTON, AS",-33.6501,134.888,7.0
ASN00018077,"SMOKY BAY, AS",-32.3752,133.9353,4.0
ASN00018079,"STREAKY BAY, AS",-32.7963,134.2116,13.0
ASN00018083,"WUDINNA AERO, AS",-33.043,135.4519,86.4
ASN00018089,"WADDIKEE, AS",-33.3173,136.2515,175.0
ASN00018091,"TUMBY BAY WARRATTA VALE, AS",-34.2617,136.2092,45.0
ASN00018094,"WIRRULLA, AS",-32.4035,134.5323,79.0
ASN00018099,"YEELANNA, AS",-34.1413,135.73,88.0
ASN00018106,"NULLARBOR, AS",-31.4492,130.8976,64.0
ASN00018107,"PORT LINCOLN WOOLGA, AS",-34.5911,135.7572,228.0
ASN00018113,"WHARMINDA, AS",-33.965,136.2472,63.0
ASN00018115,"NEPTUNE ISLAND, AS",-35.3365,136.1174,32.0
ASN00018116,"CLEVE AERODROME, AS",-33.7081,136.5026,175.0
ASN00018120,"WHYALLA AERO, AS",-33.0539,137.5205,6.5
ASN00018137,"PORT LINCOLN WESTMERE, AS",-34.8344,135.6975,90.0
ASN00018144,"WANILLA, AS",-34.5424,135.6997,80.0
ASN00018164,"MURDINGA MUNGALA, AS",-33.6993,135.9238,98.0
ASN00018165,"LOCK TERRAH WINDS, AS",-33.5733,135.602,81.0
ASN00018166,"WIRRULLA PIMBENA, AS",-32.2811,134.4714,95.0
ASN00018171,"MOUNT HOPE FAIRVIEW, AS",-34.1361,135.3319,60.0
ASN00018174,"RUDALL SWAFFPRO, AS",-33.7234,136.1511,98.0
ASN00018176,"COWELL WINTER SPRINGS, AS",-33.3416,136.7518,281.0
ASN00018182,"CEDUNA UWORRA, AS",-31.9661,133.3316,77.0
ASN00018184,"CLEVE NINGANA, AS",-33.6125,136.3722,281.0
ASN00018188,"COFFIN BAY, AS",-34.6252,135.4725,12.0
ASN00018189,"ELLISTON LAMBING STATION, AS",-33.7516,135.1863,39.0
ASN00018190,"BUCKLEBOO KARINYA, AS",-32.9004,136.1858,235.0
ASN00018192,"NORTH SHIELDS PORT LINCOLN AW, AS",-34.5993,135.8784,8.5
ASN00018193,"KIMBA CORTLINYE, AS",-33.0267,136.3171,299.0
ASN00018195,"MINNIPA DPI, AS",-32.8427,135.1515,165.0
ASN00018198,"CLEVE HEGGATON, AS",-33.4138,136.5989,340.0
ASN00018201,"PORT AUGUSTA AERO, AS",-32.5091,137.7144,14.0
ASN00018203,"TUMBY BAY YADNARIE, AS",-34.344,136.0471,55.0
ASN00018204,"ELLISTON THREE LAKES, AS",-33.5879,134.8859,8.0
ASN00018209,"OAKDALE, AS",-33.8189,135.4857,35.0
ASN00018213,"ELLISTON OAKLANDS, AS",-33.7412,135.0804,9.0
ASN00018214,"KIMBA BOTENELLA HILLS, AS",-32.9232,136.4778,301.0
ASN00019001,"APPILA, AS",-33.0524,138.4277,369.0
ASN00019006,"BOOLEROO CENTRE, AS",-32.881,138.3519,403.0
ASN00019008,"BRUCE, AS",-32.4618,138.2004,242.0
ASN00019009,"CARRIETON, AS",-32.4244,138.5304,435.0
ASN00019010,"CRADOCK, AS",-32.0695,138.4948,405.0
ASN00019013,"CARRIETON EURELIA, AS",-32.5373,138.5626,528.2
ASN00019017,"HAWKER, AS",-31.8846,138.435,315.0
ASN00019024,"MELROSE, AS",-32.8294,138.1907,386.0
ASN00019025,"MORCHARD THE ROCKS, AS",-32.7654,138.5055,510.0
ASN00019031,"OODLA WIRRA, AS",-32.8776,139.0578,521.0
ASN00019032,"ORROROO, AS",-32.7335,138.6135,428.0
ASN00019034,"PETERBOROUGH, AS",-32.9737,138.8375,534.0
ASN00019037,"PORT GERMEIN, AS",-33.0216,138.0002,4.0
ASN00019038,"QUORN, AS",-32.3538,138.0371,295.0
ASN00019042,"MELROSE PARA GUMS, AS",-32.8454,138.2116,343.0
ASN00019043,"TARCOWIE, AS",-32.9495,138.5174,504.0
ASN00019046,"HAWKER WARCOWIE, AS",-31.775,138.6529,490.0
ASN00019047,"BOOLEROO CENTRE WILLOWIE, AS",-32.6923,138.3247,316.0
ASN00019048,"WILMINGTON, AS",-32.6521,138.1003,330.0
ASN00019053,"WIRRABARA FOREST, AS",-33.0856,138.2211,380.0
ASN00019057,"ORROROO YALPARA, AS",-32.552,138.8688,302.0
ASN00019061,"CRADOCK YEDNALUE, AS",-32.0545,138.6427,540.0
ASN00019062,"YONGALA, AS",-33.0287,138.7489,512.0
ASN00019070,"WILPENA POUND, AS",-31.5286,138.6093,535.0
ASN00019112,"PORT GERMEIN GOWAN BRAE, AS",-33.023,138.0698,42.0
ASN00019113,"EDEOWIE, AS",-31.448,138.4531,159.0
ASN00019114,"MINBURRA, AS",-32.4295,138.8922,332.0
ASN00019115,"MANNANARIE, AS",-33.0188,138.6153,507.0
ASN00019116,"BOOLEROO WHIM CALLUM BRAE, AS",-32.7722,138.3005,341.0
ASN00019117,"TARCOWIE OAKLANDS, AS",-32.9068,138.5593,
ASN00020000,"BIMBOWRIE, AS",-32.0498,140.162,230.0
ASN00020004,"CURNOMONA CURNAMONA, AS",-31.6516,139.5491,90.0
ASN00020010,"KOONAMORE, AS",-32.0646,139.382,205.0
ASN00020013,"MANNA HILL, AS",-32.4292,139.9887,371.0
ASN00020017,"MUTOOROO, AS",-32.4467,140.9233,210.0
ASN00020020,"YUNTA PANARAMITEE, AS",-32.6416,139.6496,275.0
ASN00020022,"STURT VALE, AS",-33.2458,140.0345,110.0
ASN00020028,"GLUEPOT RESERVE GLUEPOT, AS",-33.7622,140.1251,55.0
ASN00020043,"BRAEMAR, AS",-33.1873,139.6209,180.0
ASN00020049,"MOOLEULOOLOO, AS",-31.6382,140.513,100.0
ASN00020053,"COCKBURN TEPCO, AS",-32.1698,140.7959,220.0
ASN00020062,"YUNTA AIRSTRIP, AS",-32.5707,139.5645,300.0
ASN00021001,"AUBURN, AS",-34.026,138.6846,310.0
ASN00021002,"BALAKLAVA, AS",-34.1424,138.4225,68.0
ASN00021003,"BLYTH, AS",-33.845,138.4901,195.0
ASN00021007,"BRINKWORTH, AS",-33.6947,138.4057,181.0
ASN00021010,"BRINKWORTH BUNGAREE, AS",-33.7459,138.5628,368.0
ASN00021012,"BUTE, AS",-33.8682,138.01,113.0
ASN00021016,"CRYSTAL BROOK, AS",-33.353,138.2057,105.0
ASN00021019,"FARRELL FLAT, AS",-33.8315,138.7917,422.0
ASN00021020,"GEORGETOWN, AS",-33.359,138.393,273.0
ASN00021022,"GULNARE, AS",-33.4669,138.4424,283.0
ASN00021025,"CLARE HILL RIVER, AS",-33.8347,138.6532,475.0
ASN00021027,"JAMESTOWN, AS",-33.2036,138.6059,455.0
ASN00021029,"KOOLUNGA, AS",-33.5867,138.3343,125.0
ASN00021031,"LAURA, AS",-33.1851,138.3001,248.0
ASN00021033,"MINTARO, AS",-33.9136,138.7195,418.0
ASN00021034,"MOUNT BRYAN, AS",-33.5592,138.903,519.0
ASN00021036,"MUNDOORA, AS",-33.5946,138.0832,65.0
ASN00021042,"PORT BROUGHTON, AS",-33.6029,137.9348,8.0
ASN00021054,"WATERVALE, AS",-33.9606,138.6446,385.0
ASN00021055,"WHYTE YARCOWIE, AS",-33.2296,138.8844,518.0
ASN00021057,"YACKA, AS",-33.5707,138.4503,165.0
ASN00021060,"JAMESTOWN DPI, AS",-33.2025,138.6024,453.0
ASN00021062,"HALLETT OLD CANOWIE, AS",-33.3041,138.7553,575.0
ASN00021063,"PORT WAKEFIELD PAREORA, AS",-34.1564,138.1827,13.0
ASN00021072,"HUDDLESTON WILLOW PONDS, AS",-33.3265,138.3172,190.0
ASN00021100,"BURRA LEIGHTON, AS",-33.6544,138.8264,501.0
ASN00021102,"CRYSTAL BROOK SECTION 299, AS",-33.35,138.102,42.0
ASN00021104,"BALAKLAVA WANAPPE, AS",-33.9943,138.4539,118.0
ASN00021110,"TICKERA, AS",-33.7876,137.7068,26.0
ASN00021120,"WHYTE YARCOWIE GUM PARK, AS",-33.2549,138.7867,563.0
ASN00021123,"MINTARO MARTINDALE, AS",-33.9394,138.7166,405.0
ASN00021127,"SEVENHILL, AS",-33.8828,138.6389,480.0
ASN00021131,"CLARE HIGH SCHOOL, AS",-33.8226,138.5933,395.0
ASN00021133,"SNOWTOWN RAYVILLE PARK, AS",-33.7676,138.2182,109.1
ASN00022008,"MAITLAND, AS",-34.3745,137.6733,185.0
ASN00022009,"MINLATON, AS",-34.7708,137.5952,70.0
ASN00022011,"MOONTA, AS",-34.0672,137.5925,20.0
ASN00022012,"PASKEVILLE, AS",-34.0402,137.9004,145.0
ASN00022013,"PORT VICTORIA, AS",-34.4951,137.4836,10.0
ASN00022014,"PORT VINCENT, AS",-34.7785,137.8579,6.0
ASN00022015,"PRICE, AS",-34.2971,138.0014,2.0
ASN00022017,"STANSBURY, AS",-34.9122,137.7977,5.0
ASN00022018,"WAROOKA, AS",-34.9906,137.3995,53.0
ASN00022020,"WALLAROO, AS",-33.9323,137.6282,10.0
ASN00022022,"PORT CLINTON YARAROO, AS",-34.1447,138.0146,118.0
ASN00022023,"YORKETOWN, AS",-35.0203,137.6064,20.0
ASN00022031,"MINLATON AERO, AS",-34.748,137.5276,32.0
ASN00022033,"ARDROSSAN VITANA, AS",-34.4724,137.885,75.0
ASN00022036,"MINLATON EVERSLEY, AS",-34.7477,137.6309,72.0
ASN00022046,"EDITHBURGH, AS",-35.1121,137.7395,6.0
ASN00022049,"STENHOUSE BAY, AS",-35.2795,136.9392,42.0
ASN00022050,"KADINA AWS, AS",-33.9703,137.6628,41.1
ASN00022054,"PINE POINT AMELIA DOWNS, AS",-34.5552,137.8581,70.0
ASN00022056,"MAITLAND CARINYA, AS",-34.402,137.7185,202.0
ASN00022803,"CAPE WILLOUGHBY, AS",-35.8426,138.1327,55.0
ASN00022807,"KINGSCOTE, AS",-35.6569,137.6364,20.0
ASN00022811,"SMITH BAY SMITHS BAY, AS",-35.5989,137.4386,30.0
ASN00022817,"FLINDERS CHASE ROCKY RIVER, AS",-35.951,136.7391,59.0
ASN00022823,"CAPE BORDA, AS",-35.7549,136.5959,158.0
ASN00022835,"PARNDANA TURKEY LANE, AS",-35.734,137.1212,201.0
ASN00022836,"PELICAN LAGOON, AS",-35.8096,137.792,25.0
ASN00022841,"KINGSCOTE AERO, AS",-35.7114,137.5231,5.0
ASN00023000,"ADELAIDE WEST TERRACE, AS",-34.9254,138.5869,40.0
ASN00023005,"ADELAIDE GLEN OSMOND, AS",-34.9464,138.6519,128.0
ASN00023013,"PARAFIELD AIRPORT, AS",-34.7977,138.6281,9.5
ASN00023023,"ADELAIDE SALISBURY BOWLING CL, AS",-34.7674,138.6434,32.0
ASN00023031,"ADELAIDE WAITE INSTITUTE, AS",-34.9697,138.6331,115.0
ASN00023034,"ADELAIDE AIRPORT, AS",-34.9524,138.5204,2.0
ASN00023042,"KENSINGTON UPPER BURNSIDE, AS",-34.9387,138.6607,
ASN00023043,"HALBURY ROAD SALISBURY HALBU, AS",-34.7607,138.6311,25.0
ASN00023055,"ADELAIDE AIRPORT ALERT, AS",-34.9552,138.5356,6.0
ASN00023076,"PORT PARHAM, AS",-34.432,138.2587,3.0
ASN00023083,"EDINBURGH RAAF, AS",-34.7111,138.6222,16.5
ASN00023087,"REEVES PLAINS PARANA PARK, AS",-34.5371,138.6049,31.0
ASN00023096,"ADELAIDE HOPE VALLEY RESERVOI, AS",-34.8564,138.6844,105.0
ASN00023105,"BROWNHILL CREEK SCOTCH COLLEG, AS",-34.9808,138.621,92.0
ASN00023107,"GAWLER, AS",-34.601,138.7359,40.0
ASN00023108,"LONGWOOD, AS",-35.0495,138.7259,458.0
ASN00023114,"BEAUMONT, AS",-34.9542,138.6586,225.0
ASN00023115,"ADELAIDE KESWICK, AS",-34.9473,138.5827,34.0
ASN00023122,"ROSEWORTHY AWS, AS",-34.5106,138.6763,65.0
ASN00023128,"BALAKLAVA DONALEEN, AS",-34.2015,138.597,260.0
ASN00023129,"MALLALA DOLAGHANS CROSSING, AS",-34.4611,138.5581,48.0
ASN00023134,"KILBURN ALERT, AS",-34.8516,138.5861,5.0
ASN00023135,"HAMLEY BRIDGE ALERT, AS",-34.3741,138.6567,90.0
ASN00023310,"MANOORA, AS",-34.005,138.8142,395.0
ASN00023314,"RIVERTON, AS",-34.158,138.7483,265.0
ASN00023318,"TANUNDA, AS",-34.5169,138.9598,250.0
ASN00023319,"TARLEE, AS",-34.2778,138.7725,192.0
ASN00023348,"SHEA OAK LOG GREENOCK CREEK, AS",-34.5103,138.835,140.0
ASN00023349,"SADDLEWORTH, AS",-34.0936,138.7952,336.0
ASN00023355,"RIVERTON LEEWARD, AS",-34.207,138.7886,275.0
ASN00023357,"NURIOOTPA, AS",-34.4709,138.9991,270.0
ASN00023365,"TARLEE HAZELTON, AS",-34.2318,138.6952,270.0
ASN00023370,"STOCKPORT CLIFTON, AS",-34.3143,138.7293,160.0
ASN00023372,"BAROSSA VALLEY DUCKPONDS CREE, AS",-34.4534,139.0638,300.0
ASN00023373,"NURIOOTPA VITICULTURAL, AS",-34.4761,139.0056,275.0
ASN00023374,"HANSBOROUGH, AS",-34.2523,139.0183,341.0
ASN00023704,"BELAIR STATE FLORA NURSERY, AS",-35.0077,138.6498,305.0
ASN00023705,"BIRDWOOD, AS",-34.8148,138.9474,385.0
ASN00023709,"CHERRY GARDENS, AS",-35.0611,138.6585,376.0
ASN00023710,"CLARENDON, AS",-35.1087,138.6256,190.0
ASN00023714,"FINNISS, AS",-35.3736,138.806,35.0
ASN00023719,"GUMERACHA, AS",-34.8237,138.8859,339.0
ASN00023720,"HAHNDORF, AS",-35.0303,138.8148,341.0
ASN00023721,"HAPPY VALLEY RESERVOIR, AS",-35.0608,138.5647,170.0
ASN00023722,"HARROGATE, AS",-34.9303,139.014,365.0
ASN00023723,"YANKALILLA INMAN VALLEY, AS",-35.4935,138.4575,100.0
ASN00023725,"KEYNETON, AS",-34.5569,139.1338,381.0
ASN00023726,"LOBETHAL, AS",-34.9044,138.8742,459.0
ASN00023731,"CUDLEE CREEK MILLBROOK, AS",-34.8331,138.8215,315.0
ASN00023732,"ADELAIDE MORPHETT VALE, AS",-35.1351,138.5274,92.0
ASN00023733,"MOUNT BARKER, AS",-35.0639,138.8509,360.0
ASN00023734,"MOUNT BOLD RESERVOIR, AS",-35.1213,138.6769,251.0
ASN00023737,"MOUNT PLEASANT, AS",-34.7735,139.0501,430.0
ASN00023741,"NORMANVILLE, AS",-35.4519,138.3227,15.0
ASN00023750,"URAIDLA, AS",-34.9563,138.7443,487.0
ASN00023752,"WILLIAMSTOWN, AS",-34.6717,138.8885,280.0
ASN00023753,"WILLUNGA, AS",-35.2705,138.5591,104.0
ASN00023754,"YANKALILLA, AS",-35.458,138.35,40.0
ASN00023756,"WILLIAMSTOWN GLEN GILLIAN, AS",-34.6603,138.9262,390.0
ASN00023758,"KERSBROOK MABENJO, AS",-34.7398,138.8715,282.0
ASN00023783,"MYPONGA RESERVOIR, AS",-35.4012,138.4262,215.0
ASN00023799,"PROSPECT HILL, AS",-35.2183,138.7342,360.0
ASN00023801,"LENSWOOD RESEARCH CENTRE, AS",-34.9482,138.8071,480.0
ASN00023803,"ASHTON CO OP, AS",-34.9423,138.727,540.0
ASN00023804,"VICTOR HARBOR ENCOUNTER BAY, AS",-35.5544,138.5997,8.0
ASN00023810,"MOUNT LOFTY CLELAND CONSERVAT, AS",-34.971,138.7042,582.0
ASN00023817,"ALDGATE, AS",-35.0221,138.7344,442.0
ASN00023820,"WILLIAMSTOWN SOUTH PARA RESER, AS",-34.6805,138.8561,280.0
ASN00023822,"HARTLEY PINE HILL, AS",-35.1802,139.0239,63.0
ASN00023825,"GOOLWA BARRAGE, AS",-35.5288,138.8067,1.0
ASN00023839,"BLACKWOOD WITTUNGA, AS",-35.0216,138.6097,242.0
ASN00023842,"MOUNT LOFTY, AS",-34.9784,138.7088,685.0
ASN00023846,"BELAIR, AS",-35.0028,138.6635,480.0
ASN00023858,"GOULD CREEK HERMITAGE, AS",-34.763,138.7765,350.0
ASN00023860,"LONG RIDGE GREENHILL, AS",-34.9499,138.6866,375.0
ASN00023862,"LOBETHAL TREATMENT WORKS, AS",-34.9121,138.873,398.0
ASN00023865,"LENSWOOD STRINGYBARK, AS",-34.8944,138.8099,540.0
ASN00023866,"VERDUN, AS",-35.0068,138.8033,315.0
ASN00023867,"ASHTON, AS",-34.9342,138.7467,535.0
ASN00023871,"SELLICKS BEACH, AS",-35.3175,138.4636,25.0
ASN00023873,"CRAFERS WEST, AS",-34.9913,138.6937,570.0
ASN00023875,"PARAWA SECOND VALLEY FOREST A, AS",-35.5695,138.2864,341.0
ASN00023876,"MCLAREN VALE PIRRAMIMMA WINER, AS",-35.2276,138.5366,55.0
ASN00023877,"KERSBROOK, AS",-34.7863,138.8651,350.0
ASN00023878,"MOUNT CRAWFORD MT CRAWFORD AW, AS",-34.7253,138.9273,525.0
ASN00023879,"CUDLEE CREEK O DEAS ROAD, AS",-34.8476,138.8751,492.0
ASN00023881,"CROMER ROAD, AS",-34.7742,139.0062,498.0
ASN00023882,"LOBETHAL MAIDMENT ROAD, AS",-34.8713,138.9058,76.0
ASN00023885,"NOARLUNGA, AS",-35.1586,138.5057,55.0
ASN00023887,"KUITPO FOREST RESERVE, AS",-35.1712,138.6783,365.0
ASN00023889,"VICTOR HARBOR WAITPINGA CLIFF, AS",-35.6094,138.5611,110.0
ASN00023890,"BELAIR ST JOHNS, AS",-35.0012,138.62,310.0
ASN00023891,"PICCADILLY WOODHOUSE, AS",-34.9847,138.7404,441.0
ASN00023892,"MONTACUTE, AS",-34.8856,138.7562,312.0
ASN00023894,"HINDMARSH ISLAND AWS, AS",-35.5194,138.8177,11.0
ASN00023896,"ATHELSTONE BLACK HILL, AS",-34.8757,138.7103,200.0
ASN00023905,"URAIDLA SUTTON CREEK, AS",-34.9695,138.741,483.0
ASN00023910,"KANGARILLA SADDLEBAGS HILL AL, AS",-35.1296,138.6819,385.0
ASN00023911,"MYLOR BIGGS FLAT ALERT, AS",-35.0632,138.7636,312.0
ASN00023916,"BELLEVUE HEIGHTS ALERT, AS",-35.0302,138.5878,210.0
ASN00024008,"LYRUP, AS",-34.2579,140.6478,22.0
ASN00024010,"MOOROOK, AS",-34.2918,140.3632,33.0
ASN00024013,"LOXTON PYAP, AS",-34.4442,140.4958,40.0
ASN00024024,"LOXTON RESEARCH CENTRE, AS",-34.439,140.5978,30.1
ASN00024025,"BERRI, AS",-34.2717,140.5964,50.0
ASN00024029,"WAIKERIE EREMOPHILA PARK, AS",-34.2159,140.186,63.0
ASN00024048,"RENMARK AERO, AS",-34.1983,140.6766,31.5
ASN00024501,"AUSTRALIA PLAINS, AS",-34.0954,139.1543,285.0
ASN00024502,"BLACK HILL, AS",-34.6923,139.4396,50.0
ASN00024504,"BOWER, AS",-34.1233,139.3509,122.0
ASN00024508,"CALLINGTON, AS",-35.125,139.0433,96.0
ASN00024509,"DUTTON, AS",-34.3515,139.1289,395.0
ASN00024510,"TAILEM BEND WOODLANDS, AS",-35.1123,139.5172,75.0
ASN00024511,"EUDUNDA, AS",-34.1754,139.0847,415.0
ASN00024518,"MENINGIE, AS",-35.6902,139.3375,3.0
ASN00024519,"MILANG, AS",-35.4068,138.9701,8.0
ASN00024521,"MURRAY BRIDGE COMPARISON, AS",-35.1234,139.2592,33.0
ASN00024525,"PALMER, AS",-34.853,139.1607,192.0
ASN00024528,"ROBERTSTOWN, AS",-33.9888,139.08,344.0
ASN00024530,"SEDAN SANDLETON, AS",-34.4584,139.3597,78.0
ASN00024531,"SEDAN, AS",-34.5719,139.2961,95.0
ASN00024536,"TAILEM BEND, AS",-35.2546,139.4542,21.0
ASN00024537,"MENINGIE WALTOWA, AS",-35.619,139.4378,5.0
ASN00024551,"CALLINGTON HILL, AS",-35.1093,139.0806,202.0
ASN00024554,"TAILEM BEND RIVER DOWNS, AS",-35.1978,139.5871,50.0
ASN00024555,"EUDUNDA MOONDAH, AS",-34.2571,139.0923,478.0
ASN00024564,"BLANCHETOWN LOCK 1, AS",-34.3515,139.6153,11.0
ASN00024571,"NILDOTTIE KROEHNS, AS",-34.7002,139.5946,52.0
ASN00024572,"WELLINGTON BRINKLEY SOUTH, AS",-35.2828,139.2031,8.0
ASN00024573,"TRURO, AS",-34.4085,139.1274,344.0
ASN00024575,"KEYNETON SEDAN HILL, AS",-34.5444,139.193,462.0
ASN00024576,"MILANG NAVARINO, AS",-35.348,138.9771,14.0
ASN00024577,"MENINGIE EGRETTA, AS",-35.7344,139.2675,5.0
ASN00024578,"MORGAN BRENDA PARK STATION, AS",-34.0647,139.6605,42.0
ASN00024579,"MOUNT TORRENS, AS",-34.8788,138.974,520.0
ASN00024580,"STRATHALBYN RACECOURSE, AS",-35.2836,138.8934,58.0
ASN00024583,"WOODSIDE INVERBRACKIE ALERT, AS",-34.9472,138.9261,447.0
ASN00024584,"MURRAY BRIDGE PALLAMANA AEROD, AS",-35.065,139.2273,45.0
ASN00024585,"SWAN REACH PONDEROSA, AS",-34.5079,139.5306,82.0
ASN00024586,"MOUNT MARY, AS",-34.1308,139.4233,100.0
ASN00025000,"ALAWOONA, AS",-34.7314,140.5036,68.0
ASN00025002,"PURNONG CLAYPANS, AS",-34.8276,139.6673,92.0
ASN00025004,"GALGA, AS",-34.6961,139.9602,70.0
ASN00025006,"KAROONDA, AS",-35.09,139.8972,72.0
ASN00025013,"PARILLA, AS",-35.2977,140.6667,100.0
ASN00025014,"PARUNA, AS",-34.7169,140.7352,55.0
ASN00025015,"PINNAROO, AS",-35.268,140.9075,101.0
ASN00025036,"KULKAMI, AS",-35.1524,140.288,84.0
ASN00025042,"SHERLOCK WARRANA, AS",-35.244,139.8261,60.0
ASN00025046,"PINNAROO KOMBALI, AS",-35.0662,140.856,88.0
ASN00025050,"CALIPH, AS",-34.6345,140.2432,68.0
ASN00025051,"MANTUNG, AS",-34.5876,140.0791,65.0
ASN00025502,"COOKE PLAINS, AS",-35.379,139.5617,6.0
ASN00025503,"COOMANDOOK, AS",-35.4698,139.6967,15.0
ASN00025504,"COONALPYN, AS",-35.6984,139.8633,22.0
ASN00025506,"GERANIUM, AS",-35.38,140.1588,72.0
ASN00025507,"KEITH, AS",-36.098,140.3556,29.0
ASN00025512,"PARRAKIE, AS",-35.3805,140.2519,83.0
ASN00025513,"PEAKE, AS",-35.3627,139.9503,23.0
ASN00025514,"TINTINARA, AS",-35.8806,140.0594,18.0
ASN00025518,"WIRREGA TAUNTON, AS",-36.1821,140.572,64.0
ASN00025557,"KEITH MUNKORA, AS",-36.1058,140.3273,27.0
ASN00025558,"NETHERTON ROCKLEY GRAZIERS, AS",-35.4696,139.9461,20.0
ASN00025560,"BORDERTOWN INDUSTRIAL ESTATE, AS",-36.3098,140.74,85.0
ASN00025561,"WOLSELEY HONITON, AS",-36.3994,140.8424,90.0
ASN00025562,"LAMEROO AUSTIN PLAINS, AS",-35.3778,140.5378,110.1
ASN00026012,"KINGSTON SE, AS",-36.8309,139.8526,7.0
ASN00026016,"LUCINDALE POST OFFICE, AS",-36.9731,140.3664,30.0
ASN00026018,"MILLICENT, AS",-37.5872,140.3426,20.0
ASN00026020,"MOUNT GAMBIER POST OFFICE, AS",-37.8333,140.7833,65.0
ASN00026021,"MOUNT GAMBIER AERO, AS",-37.7473,140.7739,63.0
ASN00026025,"PENOLA POST OFFICE, AS",-37.3803,140.8379,62.0
ASN00026026,"ROBE COMPARISON, AS",-37.1628,139.756,3.3
ASN00026058,"BORDERTOWN BEEAMA SECTION 48, AS",-36.6064,140.7118,90.0
ASN00026062,"NARACOORTE BETTWS Y COED, AS",-36.9229,140.5809,52.0
ASN00026067,"MOUNT SCHANK JETHIA, AS",-37.9594,140.7703,21.0
ASN00026086,"FURNER KENNION SECTION 235, AS",-37.3797,140.3294,30.0
ASN00026091,"COONAWARRA, AS",-37.2906,140.8254,57.0
ASN00026095,"CAPE JAFFA THE LIMESTONE, AS",-36.9655,139.7164,17.0
ASN00026098,"NANGWARRY FORESTRY SA DEPOT, AS",-37.5422,140.8137,70.0
ASN00026099,"NARACOORTE AERODROME, AS",-36.9813,140.727,49.7
ASN00026100,"PADTHAWAY SOUTH, AS",-36.6539,140.5212,35.0
ASN00026103,"BOOL LAGOON LOCKSLEY FARM, AS",-37.134,140.7273,52.0
ASN00026105,"ROBE AIRFIELD, AS",-37.1776,139.8054,3.0
ASN00026107,"WILLALOOKA NIOKA, AS",-36.437,140.3356,41.0
ASN00026109,"LAKE GEORGE MAHARISHI VEDIC C, AS",-37.3818,139.9454,5.0
ASN00026112,"MAGPIE CORNER MURRAY S COTTAG, AS",-37.285,140.6927,50.0
ASN00027015,"MORETON TELEGRAPH STATION, AS",-12.4536,142.6389,40.0
ASN00027044,"MERLUNA, AS",-13.0658,142.4511,80.0
ASN00027045,"WEIPA AERO, AS",-12.6778,141.9208,18.0
ASN00027054,"COCONUT ISLAND, AS",-10.0511,143.0686,3.5
ASN00027058,"HORN ISLAND, AS",-10.5844,142.29,4.0
ASN00027072,"BRAMWELL, AS",-12.0933,142.5589,49.0
ASN00027073,"COEN AIRPORT, AS",-13.7606,143.1183,159.3
ASN00027075,"SCHERGER RAAF, AS",-12.6167,142.0869,39.3
ASN00028004,"PALMERVILLE, AS",-16.0008,144.0758,203.8
ASN00028008,"LOCKHART RIVER AIRPORT, AS",-12.785,143.3047,18.5
ASN00028013,"MAITLAND DOWNS STATION, AS",-16.2217,144.7081,490.0
ASN00029008,"CLONCURRY MCILLWRAITH ST, AS",-20.7089,140.5192,200.0
ASN00029034,"MCKINLAY ROADHOUSE, AS",-21.2719,141.2892,172.0
ASN00029038,"KOWANYAMA AIRPORT, AS",-15.4818,141.7483,9.6
ASN00029047,"UNDILLA STATION, AS",-19.6242,138.6386,250.0
ASN00029058,"JULIA CREEK AIRPORT, AS",-20.6672,141.7214,122.5
ASN00029063,"NORMANTON AIRPORT, AS",-17.6872,141.0733,18.4
ASN00029075,"FORT CONSTANTINE STATION, AS",-20.4747,140.5828,60.0
ASN00029077,"BURKETOWN AIRPORT, AS",-17.7483,139.5356,5.7
ASN00029118,"CALTON HILLS STATION, AS",-20.1444,139.4142,350.0
ASN00029126,"MOUNT ISA MINE, AS",-20.7361,139.4817,381.0
ASN00029127,"MOUNT ISA AERO, AS",-20.6778,139.4875,340.3
ASN00029129,"DEVONCOURT STATION, AS",-21.215,140.2333,282.0
ASN00029132,"MANFRED DOWNS STATION, AS",-20.6556,142.1006,120.0
ASN00029139,"SWEERS ISLAND, AS",-17.1142,139.5981,4.0
ASN00029141,"CLONCURRY AIRPORT, AS",-20.6664,140.505,186.0
ASN00029166,"RIVERSLEIGH TM, AS",-18.9703,138.8033,115.0
ASN00029167,"CENTURY MINE, AS",-18.7569,138.7056,126.8
ASN00029169,"LOTUS VALE, AS",-17.0458,141.3783,60.0
ASN00030021,"GLENDOWER STATION, AS",-20.7389,144.4853,430.0
ASN00030022,"HUGHENDEN AIRPORT, AS",-20.8192,144.2333,316.4
ASN00030124,"GEORGETOWN AIRPORT, AS",-18.3039,143.5306,301.8
ASN00030149,"HILLVIEW STATION, AS",-21.0442,144.0992,280.0
ASN00030161,"RICHMOND AIRPORT, AS",-20.7017,143.1167,206.3
ASN00031010,"CAIRNS POST OFFICE, AS",-16.9333,145.7833,2.0
ASN00031011,"CAIRNS AERO, AS",-16.8736,145.7458,2.2
ASN00031032,"IRVINEBANK, AS",-17.4311,145.2028,763.0
ASN00031036,"KURANDA RAILWAY STATION, AS",-16.8178,145.6383,340.0
ASN00031037,"LOW ISLES LIGHTHOUSE, AS",-16.3842,145.5592,2.9
ASN00031049,"MULGRAVE MILL, AS",-17.0928,145.7906,15.0
ASN00031062,"WHYANBEEL VALLEY, AS",-16.3906,145.3511,6.0
ASN00031069,"INNOT HOT SPRINGS TOWNSHIP, AS",-17.6697,145.2414,640.0
ASN00031104,"MOUNT SOPHIA, AS",-17.1644,145.8783,5.0
ASN00031108,"WALKAMIN RESEARCH STATION, AS",-17.1347,145.4281,594.0
ASN00031119,"WOODLEIGH, AS",-17.6758,145.2783,630.0
ASN00031125,"UPPER BARRON, AS",-17.3439,145.5028,750.0
ASN00031181,"BARTLE VIEW ALERT, AS",-17.545,145.7156,580.0
ASN00031182,"GREENHAVEN ALERT, AS",-17.5875,145.5997,860.0
ASN00031183,"MALANDA ALERT, AS",-17.3594,145.5922,770.0
ASN00031184,"MCKELL ROAD ALERT, AS",-17.4442,145.5094,1038.0
ASN00031185,"MILLAA MILLAA ALERT, AS",-17.5175,145.6089,861.0
ASN00031186,"SUTTIES CREEK ALERT, AS",-17.6803,145.6603,640.0
ASN00031187,"TOPAZ ALERT, AS",-17.4694,145.7311,689.0
ASN00031188,"MAREEBA TM, AS",-17.0039,145.4281,381.0
ASN00031189,"WHITE CLIFF POINT, AS",-16.6583,145.5672,10.0
ASN00031196,"MOUNT GARNET ALERT, AS",-17.7047,145.1461,663.0
ASN00031197,"UPPER RUDD CREEK ALERT, AS",-18.0394,144.8856,762.0
ASN00031198,"HERBERTON ALERT, AS",-17.3769,145.3803,963.0
ASN00031200,"RAVENSHOE ALERT, AS",-17.5908,145.5294,1080.0
ASN00031205,"COPPERLODE DAM ALERT, AS",-16.9794,145.6747,447.0
ASN00031209,"COOKTOWN AIRPORT, AS",-15.4461,145.1861,4.8
ASN00031210,"MAREEBA AIRPORT, AS",-17.0672,145.4283,471.9
ASN00031213,"CAPE FLATTERY, AS",-14.9672,145.3106,18.5
ASN00032001,"BAMBAROO, AS",-18.8828,146.17,13.0
ASN00032002,"BEMERSIDE, AS",-18.5742,146.2225,10.0
ASN00032004,"CARDWELL MARINE PDE, AS",-18.2553,146.0197,4.5
ASN00032009,"BINGIL BAY, AS",-17.835,146.0986,25.0
ASN00032020,"MARCO STREET ALERT, AS",-17.5556,145.9556,140.0
ASN00032023,"HALIFAX MACROSSAN ST, AS",-18.5819,146.2839,9.0
ASN00032031,"LUCINDA TOWNSHIP, AS",-18.5406,146.3356,6.0
ASN00032032,"MACKNADE SUGAR MILL, AS",-18.5872,146.2508,10.0
ASN00032037,"SOUTH JOHNSTONE EXPERIMENTAL STATION, AS",-17.6053,145.9972,18.3
ASN00032040,"TOWNSVILLE AERO, AS",-19.2483,146.7661,4.3
ASN00032042,"TULLY SUGAR MILL, AS",-17.9364,145.9253,18.8
ASN00032043,"UPPER STONE EXELBY, AS",-18.7218,145.9237,62.0
ASN00032045,"VICTORIA SUGAR MILL, AS",-18.6508,146.2047,10.0
ASN00032050,"YABULU QLD NICKEL, AS",-19.2033,146.6131,9.0
ASN00032064,"PALUMA IVY COTTAGE, AS",-19.0074,146.2057,892.0
ASN00032078,"INGHAM COMPOSITE, AS",-18.6494,146.1769,11.8
ASN00032094,"GAIRLOCH, AS",-18.6156,146.1811,0.5
ASN00032098,"ROLLINGSTONE, AS",-19.0506,146.4058,16.0
ASN00032101,"MUTARNEE STORE, AS",-18.9558,146.2886,60.0
ASN00032109,"UPPER MURRAY TM, AS",-18.1069,145.8053,22.0
ASN00032117,"ALLINGHAM FORREST DRIVE, AS",-18.6867,146.2969,10.0
ASN00032119,"MENA CREEK POST OFFICE, AS",-17.6553,145.9567,60.0
ASN00032152,"TUNG OIL TM, AS",-17.5475,145.9292,9.0
ASN00032155,"CENTRAL MILL TM, AS",-17.6094,145.9786,4.0
ASN00032160,"CENTRAL MILL ALERT, AS",-17.6089,145.9792,25.0
ASN00032161,"CORSIS ALERT, AS",-17.5967,145.9014,48.0
ASN00032162,"CRAWFORDS LOOKOUT ALERT, AS",-17.615,145.8011,338.0
ASN00032163,"INNISFAIL WHARF ALERT, AS",-17.5236,146.0325,10.0
ASN00032165,"NERADA ALERT, AS",-17.5308,145.8464,43.0
ASN00032166,"TUNG OIL ALERT, AS",-17.5456,145.9325,22.0
ASN00032167,"EURAMO TM, AS",-17.9919,145.9425,10.0
ASN00032169,"GLENEAGLE ALERT, AS",-18.1919,145.3325,556.0
ASN00032170,"NASH S CROSSING ALERT, AS",-18.4125,145.7722,74.0
ASN00032171,"INGHAM PUMP STATION AL, AS",-18.6347,146.1444,32.0
ASN00032172,"WALLAMAN ALERT, AS",-18.4606,145.7383,685.8
ASN00032173,"PEACOCK SIDING ALERT, AS",-18.6797,145.9961,38.0
ASN00032174,"ABERGOWRIE ALERT, AS",-18.4889,145.9364,52.0
ASN00032176,"KIRRAMA ALERT, AS",-18.1439,145.61,594.0
ASN00032184,"ZATTAS ALERT, AS",-18.4506,145.8294,55.0
ASN00032185,"HALIFAX ALERT, AS",-18.5789,146.2803,17.0
ASN00032186,"MICHAEL CREEK ALERT, AS",-18.8478,145.9067,742.0
ASN00032191,"HAWKINS CREEK, AS",-18.5858,146.0731,26.0
ASN00032192,"CARDWELL RANGE, AS",-18.547,146.178,15.0
ASN00033002,"AYR DPI RESEARCH STATION, AS",-19.6169,147.3758,10.0
ASN00033013,"COLLINSVILLE POST OFFICE, AS",-20.5534,147.8464,196.0
ASN00033041,"LETHEBROOK, AS",-20.5392,148.6572,10.0
ASN00033045,"MACKAY AERO, AS",-21.1706,149.1794,4.7
ASN00033053,"MOUNT JUKES, AS",-21.0011,148.9364,30.0
ASN00033060,"PLEYSTOWE SUGAR MILL, AS",-21.1422,149.0381,26.0
ASN00033076,"YAAMBA, AS",-23.1333,150.3669,19.0
ASN00033077,"PACIFIC HEIGHTS, AS",-23.0967,150.7342,75.0
ASN00033080,"MOUNT CHARLTON, AS",-21.0003,148.7375,100.0
ASN00033082,"STRATHMORE, AS",-20.4992,147.6278,200.0
ASN00033106,"HAMILTON ISLAND AIRPORT, AS",-20.3658,148.9536,58.7
ASN00033111,"MARLBOROUGH TM, AS",-22.8131,149.89,100.0
ASN00033119,"MACKAY M.O, AS",-21.1172,149.2169,30.3
ASN00033151,"MAJORS CREEK, AS",-19.5953,146.9342,28.0
ASN00033186,"CARMILA BEACH ROAD, AS",-21.9061,149.4431,20.0
ASN00033195,"WILLIAMSON, AS",-22.4703,150.1786,27.6
ASN00033210,"ST LAWRENCE, AS",-22.3472,149.5242,9.2
ASN00033226,"LANSDOWN CSIRO, AS",-19.6578,146.8344,60.0
ASN00033247,"PROSERPINE AIRPORT, AS",-20.4925,148.555,19.7
ASN00033255,"HAMILTON ISLAND AIRPORT, AS",-20.3531,148.9508,22.6
ASN00033263,"BOUNDARY CREEK ALERT, AS",-20.4186,148.1108,196.0
ASN00033264,"BOWEN PUMP STATION ALERT, AS",-20.0089,148.2044,4.8
ASN00033266,"MOSS VALE ALERT, AS",-20.2381,148.0311,138.0
ASN00033267,"MOUNT DANGAR ALERT, AS",-20.2197,148.1217,45.6
ASN00033268,"REEVES ALERT, AS",-20.1494,148.1556,27.0
ASN00033269,"ROMA PEAK ALERT, AS",-20.3078,148.2181,148.0
ASN00033270,"UPPER DON ALERT, AS",-20.525,148.2125,321.0
ASN00033277,"MIRANI WEIR TM, AS",-21.1789,148.8297,34.0
ASN00033280,"POWERLINE TM, AS",-19.6333,147.1103,24.0
ASN00033285,"THE GAP TM, AS",-23.0883,150.11,9.0
ASN00033286,"CLARE ALERT, AS",-19.7586,147.2436,9.0
ASN00033287,"MILLAROO ALERT, AS",-19.9717,147.2508,19.0
ASN00033288,"INKERMAN BRIDGE ALERT, AS",-19.6433,147.3972,3.0
ASN00033289,"STRATHBOGIE ALERT, AS",-20.1425,147.5631,176.0
ASN00033290,"MOUNT PLEASANT ALERT, AS",-20.2897,147.9019,442.0
ASN00033291,"DALBEG ALERT, AS",-20.3089,147.2961,35.0
ASN00033292,"MYUNA ALERT, AS",-20.5819,147.5981,97.0
ASN00033294,"YEPPOON THE ESPLANADE, AS",-23.1364,150.7506,5.5
ASN00033295,"ALVA BEACH, AS",-19.4569,147.4833,7.5
ASN00033299,"SARICH S ALERT, AS",-21.2725,148.8203,47.8
ASN00033300,"DUMBLETON ROCKS ALERT, AS",-21.1439,149.0753,0.0
ASN00033301,"WHITEFORD S ALERT, AS",-21.3228,148.835,57.7
ASN00033302,"MIRANI WEIR ALERT, AS",-21.1772,148.8311,34.3
ASN00033303,"MACKAY ALERT, AS",-21.1397,149.1883,11.0
ASN00033304,"GARGETT ALERT, AS",-21.1792,148.7458,141.0
ASN00033306,"EMU CREEK ALERT, AS",-20.4103,148.2306,218.0
ASN00033307,"WOOLSHED, AS",-19.4167,146.5364,556.0
ASN00033308,"SAMUEL HILL AERO, AS",-22.7433,150.6578,31.0
ASN00033310,"SOUTH YAAMBA TM, AS",-23.2,150.3978,10.0
ASN00033312,"HEDLOW AIRFIELD TM, AS",-23.2233,150.605,30.0
ASN00033313,"THE GLEN TM, AS",-22.8264,150.3372,60.0
ASN00034015,"WENTWORTH, AS",-22.0656,147.7219,225.0
ASN00034084,"CHARTERS TOWERS AIRPORT, AS",-20.0464,146.2708,289.8
ASN00034097,"BURDEKIN DAM ALERT, AS",-20.6467,147.1372,179.0
ASN00035001,"ANAKIE RICHARDSON ST, AS",-23.5522,147.7461,250.0
ASN00035018,"CARNARVON STATION, AS",-24.8089,147.7525,735.0
ASN00035026,"DUARINGA POST OFFICE, AS",-23.7139,149.6725,86.0
ASN00035039,"GILIGULGUL TM, AS",-26.3564,150.0464,367.0
ASN00035040,"WESTGROVE TM, AS",-25.5811,148.4811,460.0
ASN00035053,"PEAKVALE STATION, AS",-23.1864,147.3539,
ASN00035064,"SPRING CREEK STATION, AS",-24.4481,147.8986,400.0
ASN00035065,"SPRINGSURE COMET ST, AS",-24.123,148.0856,344.5
ASN00035068,"WADDY BRAE TM, AS",-25.6103,148.9444,470.0
ASN00035069,"TAMBO POST OFFICE, AS",-24.8819,146.2564,395.1
ASN00035070,"TAROOM POST OFFICE, AS",-25.6408,149.7958,199.0
ASN00035072,"TAMBO STATION, AS",-24.8856,146.2781,400.0
ASN00035073,"TOLINESS STATION, AS",-25.3167,146.0194,335.3
ASN00035081,"WOLEEBEE NEVASA, AS",-26.2853,149.8283,273.1
ASN00035088,"BIRRABAN, AS",-24.3339,147.9425,100.0
ASN00035093,"MOUNT MOFFATT NATIONAL PARK, AS",-25.0208,147.9511,610.0
ASN00035131,"TALAGAI, AS",-23.1331,148.5267,305.0
ASN00035135,"HORNET BANK HOMESTEAD, AS",-25.7583,149.4067,271.6
ASN00035151,"MOUNT KINGSLEY, AS",-25.2797,148.85,350.0
ASN00035207,"MOUNTAIN VIEW, AS",-24.2236,148.0958,340.0
ASN00035225,"CARDBEIGN, AS",-24.2897,148.1053,330.0
ASN00035242,"BUNGABAN TM, AS",-25.8986,150.1297,260.0
ASN00035264,"EMERALD AIRPORT, AS",-23.5694,148.1756,189.4
ASN00035282,"TAROOM TM, AS",-25.6333,149.7833,181.0
ASN00035289,"MOUNT PLAYFAIR, AS",-24.8639,146.9478,525.0
ASN00036007,"BARCALDINE POST OFFICE, AS",-23.5544,145.2883,266.9
ASN00036026,"ISISFORD POST OFFICE, AS",-24.2591,144.4406,203.0
ASN00036031,"LONGREACH AERO, AS",-23.4372,144.2769,192.2
ASN00036034,"BLACKALL AIRPORT, AS",-24.4303,145.4306,281.3
ASN00036036,"LOCHNAGAR, AS",-23.6239,145.6892,290.0
ASN00036050,"ULCANBAH, AS",-22.0231,145.9831,270.0
ASN00036092,"MAYLANDS, AS",-22.4583,144.8339,240.0
ASN00036143,"BLACKALL TOWNSHIP, AS",-24.4214,145.4672,284.0
ASN00036172,"GUE, AS",-21.9667,144.3333,250.0
ASN00037000,"ALNI, AS",-22.1542,142.49,200.0
ASN00037010,"CAMOOWEAL TOWNSHIP, AS",-19.9225,138.1214,231.2
ASN00037034,"THE MONUMENT AIRPORT, AS",-21.8125,139.9267,288.4
ASN00037036,"TREPELL AIRPORT, AS",-21.84,140.8925,266.2
ASN00037039,"WINTON AIRPORT, AS",-22.3617,143.0836,192.2
ASN00037106,"PHOSPHATE HILL, AS",-21.8831,139.9728,
ASN00037109,"ALDERLEY STATION, AS",-22.4936,139.6615,222.0
ASN00037112,"SUNNYSIDE, AS",-23.9686,143.3031,170.0
ASN00037115,"ROCKLANDS, AS",-19.8611,138.1028,230.0
ASN00037120,"WYORA, AS",-21.8958,143.0967,220.0
ASN00038000,"BEDOURIE POLICE STATION, AS",-24.3597,139.4714,91.4
ASN00038012,"JUNDAH POST OFFICE, AS",-24.8303,143.9331,151.0
ASN00038026,"BIRDSVILLE AIRPORT, AS",-25.8975,139.3472,46.6
ASN00038049,"HAYFIELD, AS",-24.8519,142.6964,190.0
ASN00038063,"HAUGHTON VALE, AS",-25.1494,142.9833,131.0
ASN00039000,"ABERCORN, AS",-25.1333,151.1292,200.0
ASN00039002,"BAJOOL POST OFFICE, AS",-23.6528,150.6453,16.0
ASN00039009,"BOONA CHOPPA, AS",-24.8408,152.2414,44.0
ASN00039018,"BUSTARD HEAD LIGHTHOUSE, AS",-24.0222,151.7642,89.0
ASN00039036,"EIDSVOLD POST OFFICE, AS",-25.3706,151.1222,197.0
ASN00039040,"GIN GIN POST OFFICE, AS",-24.9933,151.9606,64.0
ASN00039044,"RIVERSLEA TM, AS",-23.5694,149.9542,32.0
ASN00039048,"GOOVIGEN POST OFFICE, AS",-24.1469,150.2864,32.0
ASN00039049,"GRACEMERE RUSSELL ST, AS",-23.4389,150.455,22.9
ASN00039059,"LADY ELLIOT ISLAND, AS",-24.1116,152.7161,3.9
ASN00039066,"GAYNDAH AIRPORT, AS",-25.6167,151.6156,110.9
ASN00039067,"MOONMERA, AS",-23.5798,150.4044,137.0
ASN00039068,"MOUNT LARCOM POST OFFICE, AS",-23.8104,150.9783,59.0
ASN00039070,"MOUNT PERRY THE PINES, AS",-25.1694,151.6375,165.0
ASN00039077,"EULEILAH CREEK, AS",-24.4481,151.8597,16.0
ASN00039083,"ROCKHAMPTON AERO, AS",-23.3753,150.4775,10.4
ASN00039089,"THANGOOL AIRPORT, AS",-24.4935,150.5709,193.1
ASN00039095,"WATALGAN WINFIELD RD, AS",-24.6342,152.0228,43.0
ASN00039102,"WOWAN POST OFFICE, AS",-23.9078,150.1953,112.8
ASN00039104,"MONTO TOWNSHIP, AS",-24.8642,151.1247,239.0
ASN00039106,"MOUNT KROOMBIT, AS",-24.4081,150.7258,248.0
ASN00039123,"GLADSTONE RADAR, AS",-23.8553,151.2628,74.5
ASN00039128,"BUNDABERG AERO, AS",-24.8885,152.3235,27.0
ASN00039129,"MALAKOFF, AS",-24.6156,151.105,340.0
ASN00039135,"BARGARA, AS",-24.8036,152.4547,13.0
ASN00039151,"GONYELINKA, AS",-24.8075,150.2197,201.0
ASN00039158,"THEODORE, AS",-24.9472,150.0789,144.0
ASN00039241,"SOUTHEND CURTIS ISLAND, AS",-23.7583,151.3097,9.0
ASN00039242,"BROADMEADOWS, AS",-23.4009,150.6238,15.0
ASN00039252,"FERNDALE, AS",-24.2122,151.4219,88.0
ASN00039255,"SPRINGS, AS",-24.1664,151.5128,56.0
ASN00039258,"WALLA, AS",-25.1342,151.98,14.5
ASN00039303,"CHILDERS SOUTH, AS",-25.2558,152.2819,95.0
ASN00039313,"WALLA TM, AS",-25.1367,151.98,16.0
ASN00039314,"SEVENTEEN SEVENTY, AS",-24.1542,151.8875,34.2
ASN00039319,"ABERCORN TM, AS",-25.1303,151.1297,184.0
ASN00039321,"EIDSVOLD TM, AS",-25.4,151.1,135.0
ASN00039322,RUNDLE ISLAND,-23.5293,151.2763,19.8
ASN00039326,"GLADSTONE AIRPORT, AS",-23.8697,151.2214,16.6
ASN00039334,"HAZELDEAN, AS",-24.0213,150.9603,66.0
ASN00039338,"BUNGADOO TM, AS",-24.9822,152.0731,50.0
ASN00039339,"DINGLE DELL TM, AS",-25.1475,151.6286,300.0
ASN00039340,"SAUERS TM, AS",-25.62,151.59,100.0
ASN00039341,"BYRNESTOWN TM, AS",-25.5247,151.76,120.0
ASN00039343,"MALANDA, AS",-25.5378,151.32,201.0
ASN00039349,"WESTWOOD TM, AS",-23.6211,150.1567,160.0
ASN00040004,"AMBERLEY AMO, AS",-27.6297,152.7111,24.2
ASN00040020,"BLACKBUTT POST OFFICE, AS",-26.8848,152.1006,435.0
ASN00040026,"MUNGAR GAYNDAH ST, AS",-25.5997,152.5925,22.0
ASN00040028,"BROOWEENA LAHEY ST, AS",-25.6006,152.2614,121.0
ASN00040043,"CAPE MORETON LIGHTHOUSE, AS",-27.0314,153.4661,99.9
ASN00040051,"CONONDALE TOWNSHIP, AS",-26.7297,152.7169,140.0
ASN00040068,"DOUBLE ISLAND POINT LIGHTHOUSE, AS",-25.9319,153.1906,95.6
ASN00040078,"EUMUNDI CRESCENT RD, AS",-26.4769,152.945,93.0
ASN00040082,"UNIVERSITY OF QUEENSLAND GATTO, AS",-27.5436,152.3375,97.0
ASN00040083,"GATTON ALLAN STREET, AS",-27.5428,152.2817,114.0
ASN00040089,"GOOMBOORIAN, AS",-26.0564,152.7889,94.0
ASN00040093,"GYMPIE, AS",-26.1831,152.6414,64.5
ASN00040094,"HARRISVILLE POST OFFICE, AS",-27.8117,152.6675,39.0
ASN00040096,"HELIDON POST OFFICE, AS",-27.5504,152.1246,155.0
ASN00040104,"ENGLESBERG VILLAGE, AS",-27.949,152.6235,101.0
ASN00040106,"KENILWORTH TOWNSHIP, AS",-26.5956,152.7281,107.0
ASN00040118,"LITTLE YABBA SFR 274, AS",-26.6234,152.684,122.0
ASN00040120,"LOWOOD DON ST, AS",-27.4617,152.5747,51.0
ASN00040126,"MARYBOROUGH, AS",-25.5161,152.7156,10.3
ASN00040139,"MOUNT ALFORD, AS",-28.0708,152.6119,143.0
ASN00040141,"MOUNT COTTON WEST, AS",-27.6163,153.2039,144.0
ASN00040151,"MUNGAR JUNCTION, AS",-25.605,152.5892,38.0
ASN00040170,"PECHEY FORESTRY, AS",-27.3042,152.0542,667.0
ASN00040177,"PROSTON POST OFFICE, AS",-26.1639,151.6014,376.0
ASN00040184,"ROSEWOOD WALLOON RD, AS",-27.6322,152.5944,63.0
ASN00040189,"SOMERSET DAM, AS",-27.1147,152.555,113.0
ASN00040196,"TALLEBUDGERA GUINEAS CREEK ROA, AS",-28.14,153.4293,13.0
ASN00040197,"MOUNT TAMBORINE FERN ST, AS",-27.9695,153.1952,515.0
ASN00040209,"POINT LOOKOUT, AS",-27.4361,153.5456,41.0
ASN00040211,"ARCHERFIELD AIRPORT, AS",-27.5717,153.0078,12.5
ASN00040212,"EAGLE FARM RACECOURSE, AS",-27.4304,153.0672,7.0
ASN00040223,"BRISBANE AERO, AS",-27.4178,153.1142,4.0
ASN00040224,"ALDERLEY, AS",-27.4193,153.0024,39.0
ASN00040231,"MANLY RAILWAY STATION, AS",-27.4565,153.18,25.0
ASN00040237,"TOOMBUL BOWLS CLUB, AS",-27.3911,153.0628,22.0
ASN00040247,"LINDFIELD, AS",-26.8422,152.5803,146.0
ASN00040258,"YARRAMAN POST OFFICE, AS",-26.8408,151.9806,458.0
ASN00040259,"YARRAMAN UPPER, AS",-26.8933,151.8975,594.0
ASN00040269,"KARRAGARRA ISLAND, AS",-27.6374,153.3735,14.0
ASN00040284,"BEERBURRUM FOREST STATION, AS",-26.9586,152.9619,48.0
ASN00040290,"MAROON, AS",-28.1725,152.72,148.0
ASN00040301,"GLENAVEN, AS",-27.1882,151.9634,612.0
ASN00040307,"VINCENT VALE, AS",-26.9664,151.7086,603.0
ASN00040312,"NEW BEITH, AS",-27.7354,152.9443,69.0
ASN00040317,"RANGE VIEW, AS",-27.7508,152.6664,53.0
ASN00040319,"ROCKY POINT SUGAR MILL, AS",-27.7347,153.3275,10.0
ASN00040334,"BIGGENDEN TM, AS",-25.5097,152.0456,125.0
ASN00040335,"MOUNT TAMBORINE ALERT, AS",-27.9694,153.2133,520.0
ASN00040341,"WONGAWALLAN ALERT, AS",-27.8794,153.2139,360.0
ASN00040345,"LUSCOMBE ALERT, AS",-27.8064,153.2072,260.0
ASN00040376,"TYUNGUN ALERT, AS",-28.0867,153.1594,200.0
ASN00040388,"UPPER TENTHILL, AS",-27.6342,152.2206,139.0
ASN00040390,"TEDDINGTON WATERWORKS, AS",-25.65,152.6647,28.0
ASN00040394,"MOUNT BARNEY, AS",-28.2321,152.7829,227.0
ASN00040396,"MALENY DENNING RD, AS",-26.7778,152.8033,489.0
ASN00040405,"HERVEY BAY AIRPORT, AS",-25.322,152.8817,13.0
ASN00040416,"CLEARVIEW TM, AS",-28.0017,153.3083,3.0
ASN00040449,"PLACID HILLS, AS",-27.5572,152.2308,125.0
ASN00040455,"DUNOLLIE, AS",-25.85,151.3667,152.0
ASN00040463,"OXLEY, AS",-27.5797,152.9875,28.0
ASN00040469,"MARODIAN HOMESTEAD, AS",-25.8694,152.3172,77.0
ASN00040478,"FRASER ISLAND EURONG, AS",-25.5047,153.1289,11.0
ASN00040480,"PERSEVERANCE DAM, AS",-27.2883,152.1239,470.0
ASN00040485,"WILSONS PEAK, AS",-28.249,152.5232,637.0
ASN00040490,"CARNEYS CREEK THE RANCH, AS",-28.2086,152.5389,268.0
ASN00040493,"HOMELEIGH, AS",-27.78,152.5346,96.0
ASN00040516,"COOMERA FOXWELL ROAD, AS",-27.8429,153.3502,20.0
ASN00040517,"MCKENZIE CREEK, AS",-27.1953,152.7539,104.0
ASN00040550,"NUMINBAH, AS",-28.2452,153.2369,355.0
ASN00040607,"SPRINGBROOK ROAD, AS",-28.2031,153.2719,681.0
ASN00040635,"DANEWOOD VALE, AS",-26.8369,152.4914,172.0
ASN00040659,"GREENBANK THOMPSON ROAD, AS",-27.6956,152.9408,77.0
ASN00040672,"WITHCOTT, AS",-27.5486,152.0236,261.0
ASN00040677,"MAROON DAM, AS",-28.1752,152.6557,231.0
ASN00040688,"MIVA, AS",-25.9575,152.4919,44.0
ASN00040693,"HIGHVALE, AS",-27.3786,152.8164,98.0
ASN00040708,"HOME MONOGORILBY, AS",-26.0336,151.0603,385.0
ASN00040714,"ROUND MOUNTAIN TM, AS",-28.0708,152.9272,44.0
ASN00040715,"SHAILER PARK OREGON DRVE, AS",-27.6473,153.1718,32.0
ASN00040717,"COOLANGATTA, AS",-28.1681,153.5053,4.0
ASN00040738,"BROMFLEET TM, AS",-27.9114,153.1056,28.0
ASN00040754,"RATHDOWNEY TM, AS",-28.2153,152.8681,84.0
ASN00040761,"WOLFFDENE ALERT, AS",-27.7828,153.1889,0.1
ASN00040762,"YARRAHAPPINI TM, AS",-27.8336,152.9878,11.0
ASN00040764,"GOLD COAST SEAWAY, AS",-27.939,153.4283,3.0
ASN00040777,"IMBIL TM, AS",-26.4572,152.6803,76.0
ASN00040778,"ZACHARIAH TM, AS",-26.3583,152.6283,90.0
ASN00040782,"COORAN TM, AS",-26.3297,152.8136,70.0
ASN00040784,"CALAMVALE ALERT, AS",-27.615,153.0444,90.0
ASN00040785,"CAROLE PARK ALERT, AS",-27.6017,152.9511,80.0
ASN00040786,"JINGLE DOWNS ALERT, AS",-27.7456,152.9081,100.0
ASN00040788,"FORESTDALE JOHNSON RD AL, AS",-27.6583,153.0,80.0
ASN00040790,"MOUNT GRAVATT ALERT, AS",-27.5467,153.0717,195.0
ASN00040793,"LYONS ALERT, AS",-27.7633,152.8367,150.0
ASN00040794,"GREENBANK THOMPSON RD AL, AS",-27.6956,152.9333,80.0
ASN00040801,"KANDANGA TM, AS",-26.3878,152.6842,80.0
ASN00040808,"CRESSBROOK DAM, AS",-27.2641,152.1959,295.0
ASN00040811,"KILKIVAN TM, AS",-26.0833,152.2167,29.0
ASN00040814,"MOY POCKET TM, AS",-26.5256,152.7428,70.0
ASN00040816,"AMBERLEY DNR TM, AS",-27.6658,152.6989,18.0
ASN00040823,"ROSENTRETERS BRIDGE TM, AS",-27.1381,152.3294,102.0
ASN00040824,"FISHERMANS POCKET TM, AS",-26.1711,152.5994,33.0
ASN00040825,"MARODIAN TM, AS",-25.9,152.3497,19.0
ASN00040827,"BAN BAN TM, AS",-25.7167,151.8,122.0
ASN00040829,"HELIDON TM, AS",-27.5439,152.1133,124.0
ASN00040830,"BELLBIRD CREEK TM, AS",-26.6278,152.7042,95.0
ASN00040832,"FOREST HOME TM, AS",-28.2033,152.77,110.0
ASN00040833,"HOME PARK TM, AS",-25.7683,152.525,5.0
ASN00040836,"ONE MILE BRIDGE ALERT, AS",-27.6272,152.7461,0.0
ASN00040841,"CROFTBY TM, AS",-28.1481,152.57,162.0
ASN00040842,"BRISBANE AERO, AS",-27.3917,153.1292,4.5
ASN00040844,"BEECHMONT ALERT, AS",-28.135,153.1883,520.0
ASN00040845,"BINNA BURRA ALERT, AS",-28.2006,153.1872,780.0
ASN00040846,"CLEARVIEW ALERT, AS",-28.0017,153.3083,2.7
ASN00040847,"HINZE DAM ALERT, AS",-28.0522,153.2817,82.2
ASN00040848,"LOWER SPRINGBROOK ALERT, AS",-28.2083,153.27,705.0
ASN00040854,"LOGAN CITY WATER TREATMENT, AS",-27.6839,153.1947,14.0
ASN00040856,"RAINBOW BEACH, AS",-25.9007,153.0891,14.4
ASN00040861,"MAROOCHYDORE AERO, AS",-26.6006,153.0903,3.3
ASN00040865,"CANNON COVE TM, AS",-28.0936,152.7158,225.0
ASN00040867,"KALBAR TM, AS",-27.9406,152.6236,80.0
ASN00040868,"MOUNT JOSEPH TM, AS",-25.7417,152.2353,120.4
ASN00040876,"WILSONS PEAK ALERT, AS",-28.2372,152.4867,852.0
ASN00040878,"WATERFORD ALERT, AS",-27.6947,153.1364,0.1
ASN00040881,AIR SEA RESCUE ALERT,-27.9561,153.4233,3.0
ASN00040882,"NUMINBAH ALERT, AS",-28.1653,153.2161,152.0
ASN00040889,"OAKWOOD TM, AS",-26.4472,152.4869,200.0
ASN00040891,"BROOWEENA TM, AS",-25.6022,152.2603,164.0
ASN00040892,"MOUNT KANIGAN TM, AS",-25.9586,152.5753,330.0
ASN00040893,"GOOMBOORIAN TM, AS",-26.0642,152.7728,80.0
ASN00040896,"TEDDINGTON WEIR HW TM, AS",-25.6517,152.6633,25.0
ASN00040902,"MUSKET FLAT MOUNT ALERT, AS",-25.4969,152.3836,200.0
ASN00040903,"PACIFIC HAVEN ALERT, AS",-25.2386,152.5319,10.0
ASN00040904,"RAILWAY BRIDGE ALERT, AS",-25.2756,152.5089,10.0
ASN00040905,"UPPER CHERWELL ALERT, AS",-25.2928,152.4097,30.0
ASN00040906,"LENTHALLS DAM ALERT, AS",-25.4019,152.5317,24.0
ASN00040907,"HOWARD ALERT, AS",-25.3289,152.5619,10.0
ASN00040908,"TEWANTIN RSL PARK, AS",-26.3911,153.0403,6.4
ASN00040912,"FRANKLYN VALE ALERT, AS",-27.7597,152.47,160.0
ASN00040913,"BRISBANE, AS",-27.4808,153.0389,8.1
ASN00040914,"MOUNT TARAMPA, AS",-27.4942,152.4972,74.0
ASN00040922,"KINGAROY AIRPORT, AS",-26.5737,151.8398,433.7
ASN00040924,"WOODFORD STANMORE, AS",-26.9028,152.7664,165.0
ASN00040928,"KARALEE, AS",-27.5639,152.8208,42.0
ASN00040931,"O REILLYS ALERT, AS",-28.2314,153.1356,913.0
ASN00040932,"DARLINGTON ALERT, AS",-28.2608,153.0917,300.0
ASN00040933,"FOXLEY ALERT, AS",-28.27,153.0264,178.0
ASN00040934,"ROMANI ALERT, AS",-27.8464,152.9061,39.0
ASN00040935,"MACLEAN BRIDGE ALERT, AS",-27.7864,153.0161,3.0
ASN00040936,"LUMEAH ALERT, AS",-28.0614,153.0408,90.0
ASN00040937,"BENOBBLE ALERT, AS",-27.9978,153.1575,72.0
ASN00040938,"BROMFLEET ALERT, AS",-27.9108,153.1047,28.0
ASN00040939,"BEAUDESERT ALERT, AS",-27.9681,152.9861,50.0
ASN00040940,"YARRAHAPPINI ALERT, AS",-27.8336,152.9878,40.0
ASN00040941,"KOORALBYN ALERT, AS",-28.0708,152.8558,326.0
ASN00040942,"PALEN CREEK ALERT, AS",-28.3222,152.7697,220.0
ASN00040943,"DIECKMANS BRIDGE ALERT, AS",-28.2453,152.8908,105.0
ASN00040944,"RUDDS LANE ALERT, AS",-28.1692,152.9833,87.0
ASN00040945,"ROUND MOUNTAIN ALERT, AS",-28.0708,152.9272,62.0
ASN00040946,"RATHDOWNEY ALERT, AS",-28.2153,152.8681,84.0
ASN00040947,"CROFTBY ALERT, AS",-28.1481,152.57,173.0
ASN00040948,"KNAPPS PEAK ALERT, AS",-28.1461,152.7358,278.0
ASN00040949,"BOONAH ALERT, AS",-28.0033,152.6875,110.0
ASN00040958,"REDCLIFFE, AS",-27.2169,153.0922,12.6
ASN00040964,"REGENTS PARK, AS",-27.6696,153.0442,38.0
ASN00040965,"CLONTARF, AS",-27.2442,153.0867,29.0
ASN00040969,"GODWIN BEACH, AS",-27.0717,153.1058,7.0
ASN00040973,"WINDAROO, AS",-27.7472,153.1919,13.0
ASN00040976,"BRISBANE BOTANIC GARDENS MOUNT CO, AS",-27.4753,152.9753,65.0
ASN00040978,"BRIBIE ISLAND ALERT, AS",-27.0797,153.1803,7.0
ASN00040979,"MORAYFIELD ALERT, AS",-27.1247,152.9356,24.0
ASN00040980,"DECEPTION BAY ALERT, AS",-27.1822,153.0186,4.0
ASN00040981,"BURLEIGH WATERS ALERT, AS",-28.0792,153.4319,
ASN00041005,"BELL STORE, AS",-26.9322,151.4503,491.0
ASN00041012,"FERNFLAT, AS",-26.6764,150.8992,333.0
ASN00041013,"CANNING DOWNS, AS",-28.2264,152.0661,456.0
ASN00041014,"CARBEAN, AS",-28.3539,151.6281,590.0
ASN00041016,"CECIL PLAINS HOMESTEAD, AS",-27.5331,151.2025,340.0
ASN00041022,"DALVEEN, AS",-28.5,151.9722,880.0
ASN00041024,"DOCTORS CREEK, AS",-27.2067,151.8467,612.0
ASN00041047,"INGLEWOOD POST OFFICE, AS",-28.4147,151.0828,291.0
ASN00041050,"JANDOWAE POST OFFICE, AS",-26.7797,151.1111,362.0
ASN00041052,"JINGI JINGI, AS",-26.6928,151.0964,365.0
ASN00041053,"JONDARYAN POST OFFICE, AS",-27.3675,151.5897,382.0
ASN00041072,"MOUNT IRVING, AS",-27.4831,151.6003,396.0
ASN00041083,"PRATTEN, AS",-28.0694,151.7797,609.0
ASN00041085,"QUEEN MARY FALLS, AS",-28.3253,152.3942,884.0
ASN00041086,"QUENDON, AS",-26.6653,151.3969,562.0
ASN00041090,"DARR CREEK TM, AS",-26.5392,151.1347,393.0
ASN00041092,"BALLON TM, AS",-26.4489,150.8925,335.0
ASN00041095,"STANTHORPE LESLIE PARADE, AS",-28.6617,151.9339,787.0
ASN00041100,"TEXAS POST OFFICE, AS",-28.8544,151.1681,297.0
ASN00041106,"UPPER FOREST SPRINGS, AS",-27.9651,152.0752,566.0
ASN00041112,"GIDDI GIDDI SOUTH TM, AS",-28.4033,150.0517,196.0
ASN00041116,"WALLANGARRA POST OFFICE, AS",-28.9231,151.9306,875.0
ASN00041120,"YANGAN POST OFFICE, AS",-28.1897,152.2064,520.0
ASN00041134,"TOP PLAINS, AS",-28.3128,152.4025,995.0
ASN00041145,"MARNHULL, AS",-26.8397,151.165,348.0
ASN00041152,"LANGLEY TM, AS",-27.9753,150.9225,360.0
ASN00041162,"BYBERA TM, AS",-28.2694,150.8106,290.0
ASN00041166,"SPRINGSIDE, AS",-27.6764,151.6022,503.0
ASN00041167,"HELENVALE, AS",-28.1708,152.2764,549.0
ASN00041175,"APPLETHORPE, AS",-28.6217,151.9533,871.6
ASN00041198,"TINGHA, AS",-27.1472,151.3028,357.0
ASN00041208,"SPRING CREEK, AS",-28.3542,152.3392,609.6
ASN00041230,"LIMEVALE TM, AS",-28.7208,151.1825,320.0
ASN00041240,"HEREWARD, AS",-27.1858,151.1419,340.0
ASN00041250,"PAMPAS, AS",-27.7894,151.4133,390.0
ASN00041275,"GLENROY MASSIE, AS",-28.1469,151.9253,457.0
ASN00041276,"GLENRIVE, AS",-27.9292,152.1606,622.0
ASN00041277,"GLENROY, AS",-26.7675,151.2075,408.0
ASN00041338,"BALLANDEAN POST OFFICE, AS",-28.8,151.8433,723.9
ASN00041344,"KARARA, AS",-28.2075,151.5608,480.0
ASN00041348,"WYAGA TM, AS",-28.1667,150.6444,267.0
ASN00041359,"OAKEY AERO, AS",-27.4034,151.7413,405.7
ASN00041365,"PIKEDALE TM, AS",-28.6514,151.6336,560.0
ASN00041371,"MELVA, AS",-28.4572,151.6817,700.0
ASN00041391,"WOODSPRING, AS",-28.3611,151.1464,300.0
ASN00041405,"FELTON, AS",-27.7952,151.7387,428.0
ASN00041415,"WARAHGAI TM, AS",-28.2367,151.5347,488.0
ASN00041430,"GLENLYON DAM, AS",-28.9653,151.47,438.0
ASN00041445,"LESLIE DAM, AS",-28.2144,151.9194,478.0
ASN00041457,"COOLMUNDA DAM, AS",-28.4225,151.2131,315.0
ASN00041464,"OAKINGTON, AS",-28.1553,152.33,600.0
ASN00041469,"MACALISTER, AS",-27.0289,151.0947,337.0
ASN00041489,"MEDPARK BRIDGE TM, AS",-28.3011,150.2936,216.0
ASN00041490,"BRIGALOW BRIDGE TM, AS",-26.9,150.7833,297.0
ASN00041491,"BARONGAROOK TM, AS",-28.4333,151.4667,20.0
ASN00041493,"THE DEEP CROSSING, AS",-27.4967,150.4539,295.0
ASN00041495,"TERRAINE TM, AS",-28.4828,151.2831,318.0
ASN00041503,"WARWICK SCOTS COLLEGE TM, AS",-28.2167,152.05,446.0
ASN00041506,"BENGALLA TM, AS",-28.6561,150.6653,227.9
ASN00041507,"NEW KILDONAN TM, AS",-28.6656,150.445,230.0
ASN00041508,"O CONNOR TM, AS",-27.7267,150.6453,300.0
ASN00041509,"TRAIGHLI, AS",-27.6783,150.3483,200.0
ASN00041510,"TAMBA, AS",-27.4722,151.9481,642.0
ASN00041512,"COOBY CREEK DAM, AS",-27.3825,151.9244,497.0
ASN00041514,"LEYBURN TM, AS",-28.0333,151.5833,
ASN00041519,"BOOBA SANDS TM, AS",-28.5767,150.845,
ASN00041522,"DALBY AIRPORT, AS",-27.1605,151.2634,343.9
ASN00041525,"WARWICK, AS",-28.2061,152.1003,475.4
ASN00041529,"TOOWOOMBA AIRPORT, AS",-27.5425,151.9134,640.9
ASN00041531,"GLENGALLAN CREEK ALERT, AS",-28.1167,152.0642,460.0
ASN00041533,"EMU VALE ALERT, AS",-28.2292,152.2269,511.0
ASN00041534,"WARWICK ALERT, AS",-28.2111,152.0275,448.0
ASN00041535,"ELBOW VALLEY ALERT, AS",-28.3731,152.14,490.0
ASN00041536,"MURRAYS BRIDGE ALERT, AS",-28.2883,152.1053,470.0
ASN00041537,"KILLARNEY ALERT, AS",-28.3394,152.2944,507.0
ASN00041540,"BEARDY JUNCTION, AS",-29.1694,151.3414,326.0
ASN00041545,"DUNMORE EXCHANGE TM, AS",-27.6539,150.9136,350.0
ASN00041546,"AVOCA TM, AS",-27.9803,150.515,290.0
ASN00041547,"WALLANGARRA TM, AS",-28.9236,151.9289,877.0
ASN00041548,"TEXAS TM, AS",-28.8675,151.1611,272.0
ASN00041550,"GRAYS GATE EXCHANGE TM, AS",-27.9856,151.2828,400.0
ASN00041551,"BELGRAE PARK ALERT, AS",-26.9669,151.4847,480.0
ASN00042002,"BELAH PARK, AS",-27.2067,150.2828,292.0
ASN00042016,"HANNAFORD POST OFFICE, AS",-27.3411,150.0619,283.0
ASN00042022,"MEANDARRA POST OFFICE, AS",-27.3236,149.8828,289.0
ASN00042025,"HORSE CREEK TM, AS",-26.5519,150.6322,350.0
ASN00042034,"OURIGILLA, AS",-27.1689,150.0019,269.0
ASN00042035,"JACKSON COMMUNITY POSTAL AGEN, AS",-26.6439,149.6278,307.0
ASN00042036,"BAWNDUGGIE TM, AS",-26.16,150.8392,380.0
ASN00042053,"FLINTON, AS",-27.8967,149.5586,215.0
ASN00042100,"SOUTHWOOD, AS",-27.7644,150.0694,240.0
ASN00042102,"RIPPLE DOWNS, AS",-27.9364,150.1425,248.0
ASN00042104,"SURREY TM, AS",-28.3839,149.6747,190.0
ASN00042112,"MILES CONSTANCE STREET, AS",-26.6569,150.1819,304.8
ASN00042115,"LUNDAVRA TM, AS",-28.0697,149.9794,240.0
ASN00042116,"ARDEN DOWNS TM, AS",-28.23,149.5617,230.0
ASN00043006,"MOOGA HILLS TM, AS",-26.2544,148.9453,380.0
ASN00043008,"SPRINGDALE TM, AS",-26.1683,148.6644,400.0
ASN00043015,"INJUNE POST OFFICE, AS",-25.8428,148.5669,393.0
ASN00043020,"MITCHELL POST OFFICE, AS",-26.4888,147.9777,336.5
ASN00043033,"TINDARRA TM, AS",-26.4689,148.8047,350.0
ASN00043035,"SURAT, AS",-27.159,149.0703,245.7
ASN00043043,"YULEBA GARDEN ST, AS",-26.6133,149.3878,295.0
ASN00043045,"WARRIE STATION, AS",-28.0944,148.9731,185.0
ASN00043051,"PINE HILLS TM, AS",-26.2625,149.2389,350.0
ASN00043052,"WARKON, AS",-27.0006,149.4969,250.0
ASN00043054,"INJUNE TM, AS",-25.8428,148.5669,390.0
ASN00043060,"HAVELOCK, AS",-26.0756,147.9044,434.0
ASN00043091,"ROMA AIRPORT, AS",-26.5442,148.7778,303.2
ASN00043095,"NAMARAH, AS",-27.3867,149.3878,332.0
ASN00043099,"SPRINGFIELD, AS",-26.82,148.0244,316.0
ASN00043100,"OLD CASHMERE TM, AS",-27.7333,148.4667,24.0
ASN00043101,"WERIBONE TM, AS",-27.3117,148.8267,215.0
ASN00043102,"MITCHELL TM, AS",-26.49,147.9792,326.0
ASN00043105,"TABERS TM, AS",-26.4083,148.7833,315.0
ASN00043106,"RICHLAND HILL, AS",-26.5089,148.1314,404.0
ASN00043108,"BENDOBA TM, AS",-25.96,148.3867,470.0
ASN00043109,"ST GEORGE AIRPORT, AS",-28.0489,148.5942,198.5
ASN00044010,"BOLLON MARY ST, AS",-28.0336,147.4803,182.9
ASN00044021,"CHARLEVILLE AERO, AS",-26.4139,146.2558,301.6
ASN00044026,"CUNNAMULLA POST OFFICE, AS",-28.0706,145.6808,188.7
ASN00044038,"GLENORIE, AS",-27.02,147.1536,311.0
ASN00044047,"LOWAN HILLS, AS",-26.44,147.6942,429.0
ASN00044054,"MULGA DOWNS, AS",-28.8061,147.1194,127.0
ASN00044062,"PEROLA PARK, AS",-25.7067,146.3222,378.0
ASN00044070,"VICTORIA DOWNS, AS",-26.375,147.0394,397.0
ASN00044153,"EULO, AS",-28.1631,145.0431,161.0
ASN00044166,"YAMBURGAN, AS",-28.5128,148.4017,170.0
ASN00044174,"WALLEN, AS",-27.62,145.8281,221.0
ASN00044181,"HUNGERFORD, AS",-28.9972,144.4094,139.0
ASN00044208,"WARILDA, AS",-26.1394,145.6639,289.0
ASN00044211,"CHESTERTON TM, AS",-25.3353,147.3,520.0
ASN00044212,"DUNVEGAN TM, AS",-26.1236,146.6228,400.0
ASN00045009,"BALLERA GAS FIELD, AS",-27.4008,141.8114,114.5
ASN00045025,"THARGOMINDAH AIRPORT, AS",-27.9867,143.815,130.9
ASN00045057,"NOCCUNDRA HOTEL, AS",-27.8169,142.5894,81.0
ASN00046006,"TIBOOBURRA FORT GREY, AS",-29.0885,141.2033,134.0
ASN00046012,"WILCANNIA AERODROME AWS, AS",-31.5194,143.385,94.3
ASN00046015,"BROKEN HILL LANGAWIRRA, AS",-31.4459,142.1352,135.0
ASN00046022,"WILCANNIA MOUNT MURCHISON, AS",-31.4469,143.6548,83.0
ASN00046043,"WILCANNIA REID ST, AS",-31.5631,143.3747,75.0
ASN00046052,"WANAARING OWEN DOWNS, AS",-29.4089,143.3808,115.0
ASN00046115,"TILPA TREVALLYN, AS",-31.3854,144.0422,90.0
ASN00046124,"TIBOOBURRA BRINDIWILPA, AS",-29.8718,142.434,85.0
ASN00046126,"TIBOOBURRA AIRPORT, AS",-29.4448,142.0567,176.4
ASN00046128,"FOWLERS GAP AWS, AS",-31.0867,141.7017,181.0
ASN00046129,"WHITE CLIFFS AWS, AS",-30.8517,143.0742,158.0
ASN00046130,"WHITE CLIFFS LAUREL VALE, AS",-30.483,143.911,88.0
ASN00046131,"WANAARING OURIMBAH, AS",-29.2746,143.6496,130.0
ASN00047000,"GUM LAKE ALBEMARLE, AS",-32.5277,143.3698,64.0
ASN00047013,"POONCARIE KARPA KORA STATION, AS",-32.9669,143.1071,72.0
ASN00047016,"LAKE VICTORIA STORAGE, AS",-34.0398,141.2652,43.0
ASN00047019,"MENINDEE POST OFFICE, AS",-32.3937,142.4173,61.0
ASN00047022,"IVANHOE MT MANARA, AS",-32.4757,143.9409,117.0
ASN00047029,"POONCARIE MAIL AGENCY, AS",-33.3856,142.5696,53.0
ASN00047040,"WENTWORTH WAMBERRA STATION, AS",-33.9297,142.3572,60.0
ASN00047046,"WENTWORTH WOODLANDS, AS",-33.2552,141.7984,46.0
ASN00047048,"BROKEN HILL AIRPORT AWS, AS",-32.0012,141.4694,281.3
ASN00047053,"WENTWORTH POST OFFICE, AS",-34.1065,141.9189,37.0
ASN00047056,"BROKEN HILL LANGWELL, AS",-32.419,141.5525,124.0
ASN00047058,"MENINDEE DWR DEPOT, AS",-32.3902,142.4164,64.0
ASN00047078,"WENTWORTH SPRINGWOOD, AS",-33.2714,141.5962,50.0
ASN00047093,"WENTWORTH BURTUNDY, AS",-33.7492,142.2205,42.0
ASN00047105,"WENTWORTH SCOTIA SANCTUARY, AS",-33.2135,141.1672,50.0
ASN00047106,"POONCARIE HARCOURT, AS",-32.9703,142.3855,55.0
ASN00047107,"PARINGI KERRIBEE, AS",-34.3206,142.3645,60.0
ASN00048015,"BREWARRINA HOSPITAL, AS",-29.9614,146.8651,115.0
ASN00048025,"WEILMORINGLE CARINGLE, AS",-29.3513,146.8126,131.0
ASN00048027,"COBAR MO, AS",-31.484,145.8294,260.0
ASN00048031,"COLLARENEBRI ALBERT ST, AS",-29.5407,148.5818,145.0
ASN00048079,"WANAARING POST OFFICE, AS",-29.7029,144.1482,108.0
ASN00048115,"COBAR TAMBUA, AS",-31.424,145.2539,240.0
ASN00048168,"ANGLEDOOL ANGLEDOOL STATION, AS",-29.1173,147.8993,150.0
ASN00048237,"COBAR AIRPORT AWS, AS",-31.5389,145.7964,218.0
ASN00048238,"BREWARRINA EUMARRA, AS",-30.1749,146.9724,123.0
ASN00048243,"LIGHTNING RIDGE VISITORS INFOR, AS",-29.431,147.9722,154.0
ASN00048245,"BOURKE AIRPORT AWS, AS",-30.0362,145.9521,107.3
ASN00049000,"IVANHOE AERODROME AWS, AS",-32.8831,144.3088,100.0
ASN00049002,"BALRANALD RSL, AS",-34.6398,143.561,61.0
ASN00049045,"EUSTON SUNNYSIDE, AS",-34.5594,143.0754,63.0
ASN00049049,"HATFIELD BENILKIE, AS",-33.7272,144.0175,81.0
ASN00049055,"OXLEY WALMER DOWNS, AS",-34.1953,143.7916,68.0
ASN00049061,"IVANHOE BERANGABAH, AS",-32.3884,144.7456,110.0
ASN00049063,"IVANHOE KILFERA, AS",-33.052,144.1444,79.0
ASN00049092,"BOOLIGAL YAMBA, AS",-33.6959,144.2757,79.0
ASN00049103,"IVANHOE BADEN PARK, AS",-32.1698,144.2007,90.0
ASN00049117,"NYMAGEE BALOWRA, AS",-32.2479,146.4856,335.0
ASN00049132,"HILLSTON MOUNT VIEW, AS",-33.1898,145.3067,118.0
ASN00050010,"BURCHER POST OFFICE, AS",-33.5159,147.2541,220.0
ASN00050011,"TOTTENHAM BURDENDA, AS",-32.1266,147.4067,198.0
ASN00050014,"CONDOBOLIN RETIREMENT VILLAGE, AS",-33.0818,147.1524,220.0
ASN00050017,"WEST WYALONG AIRPORT AWS, AS",-33.9382,147.1962,257.0
ASN00050031,"PEAK HILL POST OFFICE, AS",-32.7235,148.1902,285.0
ASN00050035,"TOTTENHAM POST OFFICE, AS",-32.2435,147.3545,236.0
ASN00050036,"TRUNDLE BROOKVIEW ST, AS",-32.9233,147.7052,255.0
ASN00050037,"TULLAMORE OLD POST OFFICE, AS",-32.6309,147.5659,239.0
ASN00050045,"YALGOGRIN NORTH ROLOMA, AS",-33.8486,146.8261,315.0
ASN00050052,"CONDOBOLIN AG RESEARCH STATION, AS",-33.0664,147.2283,195.0
ASN00050108,"WILMATHA WANGANUI, AS",-32.5724,147.2162,257.0
ASN00050110,"PEAK HILL WARATAH, AS",-32.6358,148.058,242.0
ASN00050117,"ALECTOWN BRIDGEWATER, AS",-32.8952,148.2811,341.0
ASN00050119,"ALECTOWN VANVILLA, AS",-32.9365,148.2452,350.0
ASN00050137,"CONDOBOLIN AIRPORT AWS, AS",-33.0682,147.2133,192.6
ASN00050139,"TOMINGLEY GUNDONGS, AS",-32.5613,148.3353,355.0
ASN00050142,"NYMAGEE BALEDMUND, AS",-32.2265,146.5514,320.0
ASN00051008,"WYANGA BARCOO, AS",-32.4581,148.1491,244.0
ASN00051018,"GILGANDRA CHELMSFORD AVE, AS",-31.7055,148.6625,282.0
ASN00051026,"HERMIDALE TANK, AS",-31.5629,146.7181,215.0
ASN00051033,"NYNGAN MUDALL, AS",-31.8576,147.1343,182.0
ASN00051034,"WARREN MUMBLEBONE, AS",-31.4986,147.6865,192.0
ASN00051038,"NEVERTIRE CLYDE ST, AS",-31.8369,147.7171,197.0
ASN00051039,"NYNGAN AIRPORT, AS",-31.5495,147.1961,173.0
ASN00051042,"QUAMBONE STATION, AS",-30.9252,147.869,152.0
ASN00051049,"TRANGIE RESEARCH STATION AWS, AS",-31.9861,147.9489,215.0
ASN00051122,"CURBAN ERCILDOUNE, AS",-31.5558,148.5981,260.0
ASN00051133,"WARRUMBUNGLE MIAGUNYAH, AS",-31.2294,148.8861,400.0
ASN00051160,"GILGANDRA COUNCIL DEPOT, AS",-31.7069,148.6358,288.0
ASN00051161,"COONAMBLE AIRPORT AWS, AS",-30.9776,148.3798,181.3
ASN00052016,"GWABEGAR POST OFFICE, AS",-30.6088,148.972,211.0
ASN00052020,"MUNGINDI POST OFFICE, AS",-28.9786,148.9899,160.0
ASN00052023,"PILLIGA POST OFFICE, AS",-30.3515,148.8843,162.0
ASN00052026,"WALGETT COUNCIL DEPOT, AS",-30.0236,148.1218,133.0
ASN00052067,"ROWENA POST OFFICE, AS",-29.8136,148.9104,155.0
ASN00052088,"WALGETT AIRPORT AWS, AS",-30.0372,148.1223,133.0
ASN00053002,"BARADINE FORESTRY, AS",-30.9469,149.0654,302.0
ASN00053003,"BELLATA POST OFFICE, AS",-29.9182,149.7919,229.0
ASN00053011,"GARAH POST OFFICE, AS",-29.0747,149.6347,181.0
ASN00053018,"CROPPA CREEK KRUI PLAINS, AS",-28.9917,150.017,222.0
ASN00053026,"NARRABRI MOLLEE, AS",-30.2552,149.6789,209.0
ASN00053033,"PALLAMALLAWA POST OFFICE, AS",-29.4748,150.1359,230.0
ASN00053035,"BELLATA ABERFELDIE, AS",-29.8401,149.3207,180.0
ASN00053041,"TULLOONA COOLANGA, AS",-28.8697,150.0903,218.0
ASN00053044,"WEE WAA GEORGE ST, AS",-30.2257,149.4452,190.0
ASN00053073,"KENEBRI ELLERSLIE, AS",-30.7632,149.0008,250.0
ASN00053081,"KENEBRI CUMBIL, AS",-30.8043,149.1246,275.0
ASN00053085,"GARAH DELVIN, AS",-28.9665,149.6721,184.0
ASN00053108,"TERRY HIE HIE, AS",-29.7917,150.1542,250.0
ASN00053115,"MOREE AERO, AS",-29.4914,149.8458,213.0
ASN00054000,"BUNDARRA ARALUEN, AS",-30.0478,150.9392,740.0
ASN00054003,"BARRABA POST OFFICE, AS",-30.3781,150.6096,500.0
ASN00054004,"BINGARA POST OFFICE, AS",-29.8673,150.5715,296.0
ASN00054013,"DELUNGRA POST OFFICE, AS",-29.654,150.8291,602.0
ASN00054021,"BARRABA MOUNT LINDSAY, AS",-30.3209,150.2734,869.0
ASN00054029,"WARIALDA POST OFFICE, AS",-29.5416,150.5754,320.0
ASN00054038,"NARRABRI AIRPORT AWS, AS",-30.3154,149.8302,229.0
ASN00054046,"ASHFORD BURRABOGIE, AS",-29.3992,151.4107,750.0
ASN00054049,"GRAMAN ULUPNA, AS",-29.405,150.9012,590.0
ASN00054076,"KINGS PLAINS WINDERMERE, AS",-29.64,151.4297,
ASN00054078,"INVERELL WANDERA, AS",-29.6754,151.1527,645.0
ASN00054104,"PINDARI DAM, AS",-29.3899,151.2448,462.0
ASN00054114,"BUNDARRA BEVERLEY, AS",-30.0977,151.0089,645.0
ASN00054117,"COBBADAH ROCKY GLEN, AS",-30.2244,150.723,646.0
ASN00054124,"CROOBLE STATION, AS",-29.2743,150.2658,287.0
ASN00054128,"COPETON DAM, AS",-29.8866,150.8951,660.0
ASN00054141,"GWYDER RIVER GRAVESEND RD BDG, AS",-29.5833,150.37,
ASN00054146,"BEARDY RIVER HAYSTACK TM, AS",-29.2333,151.3833,
ASN00054149,"NARRABRI MURRUMBILLA, AS",-30.1872,149.8642,260.0
ASN00054151,"NARRABRI MT KAPUTAR NATIONAL, AS",-30.2838,150.1666,1450.0
ASN00055000,"ATTUNGA GARTHOWEN, AS",-30.9113,150.8579,369.0
ASN00055003,"SOMERTON BECTIVE ESTATE, AS",-30.9706,150.7355,348.0
ASN00055006,"BLACKVILLE POST OFFICE, AS",-31.6405,150.2356,410.0
ASN00055014,"CURLEWIS POST OFFICE, AS",-31.1168,150.2682,273.0
ASN00055016,"DANGLEMAH RUTHERGLEN, AS",-30.9963,151.2292,655.0
ASN00055024,"GUNNEDAH RESOURCE CENTRE, AS",-31.0261,150.2687,307.0
ASN00055041,"NUNDLE POST OFFICE, AS",-31.4605,151.1275,595.0
ASN00055044,"BOGGABRI PENRYN, AS",-30.7072,150.2891,311.0
ASN00055046,"PINE RIDGE BILLABONG, AS",-31.5271,150.4296,340.0
ASN00055049,"QUIRINDI POST OFFICE, AS",-31.5086,150.6792,390.0
ASN00055053,"TAMBAR SPRINGS POST OFFICE, AS",-31.346,149.8285,457.0
ASN00055057,"WILLOW TREE VALAIS, AS",-31.7731,150.2856,465.0
ASN00055066,"WALLABADAH WOODTON, AS",-31.6218,150.8437,640.0
ASN00055105,"ATTUNGA TARANA, AS",-30.7967,150.8647,545.0
ASN00055120,"ATTUNGA THE PINES, AS",-30.931,150.7869,381.0
ASN00055136,"WOOLBROOK DANGLEMAH ROAD, AS",-30.9672,151.3451,910.0
ASN00055157,"WINTON DALBLAIR, AS",-31.0853,150.658,434.0
ASN00055164,"WEABONGA STONELEIGH, AS",-31.1805,151.3031,690.0
ASN00055176,"LOOMBERAH PENDENE, AS",-31.2573,151.0842,540.0
ASN00055183,"DURI ASHGROVE NUMBER 142, AS",-31.2962,150.8606,477.0
ASN00055190,"GOWRIE SOUTH, AS",-31.3658,150.8357,579.0
ASN00055195,"GOWRIE LALLYBROCH, AS",-31.4373,150.8913,638.0
ASN00055202,"GUNNEDAH AIRPORT AWS, AS",-30.9537,150.2494,262.6
ASN00055220,"GUNNEDAH BELTANA, AS",-30.9585,150.1505,310.0
ASN00055245,"NUNDLE KEEVA, AS",-31.5008,151.0271,670.0
ASN00055254,"MANILLA FERN HILL, AS",-30.7902,150.629,370.0
ASN00055255,"QUIRINDI SPRING VALE, AS",-31.5269,150.7633,425.0
ASN00055257,"DURI DUNGOWAN RD, AS",-31.2208,150.8213,456.0
ASN00055262,"OGUNBIL AMAROO, AS",-31.3505,151.3177,585.0
ASN00055263,"MULLALEY KEIGHO, AS",-30.9582,149.6844,375.0
ASN00055276,"KEEPIT DAM, AS",-30.8828,150.4928,304.0
ASN00055282,"PINE RIDGE RANGARI, AS",-31.4753,150.5439,330.0
ASN00055303,"MANILLA ROSEDALE, AS",-30.8098,150.7524,420.0
ASN00055309,"DUNGOWAN GLENDOWER MOUNTAIN, AS",-31.1472,151.2306,1050.0
ASN00055311,"DURI POST OFFICE, AS",-31.2171,150.8185,475.0
ASN00055313,"GOONOO GOONOO GOONOO GOONOO C, AS",-31.2717,150.9167,450.0
ASN00055319,"UPPER MANILLA GLENBORAH, AS",-30.6126,150.5862,530.0
ASN00055321,"MULLA CROSSING COCKBURN RIVER, AS",-31.0625,151.125,
ASN00055322,"NIANGALA MOUNT SANDON, AS",-31.3908,151.4019,1330.0
ASN00055325,"TAMWORTH AIRPORT AWS, AS",-31.0742,150.8362,394.9
ASN00055331,"MANILLA TOWRI, AS",-30.7299,150.5784,430.0
ASN00055335,"NUNDLE MALONGA, AS",-31.5347,151.1806,1200.0
ASN00055336,"NUNDLE HEAD OF THE PEEL, AS",-31.5986,151.1414,
ASN00056001,"SAPPHIRE ARGYLE, AS",-29.7183,151.355,795.0
ASN00056006,"BUNDARRA POST OFFICE, AS",-30.1711,151.0757,654.0
ASN00056008,"DEEPWATER POST OFFICE, AS",-29.4421,151.8483,970.0
ASN00056010,"WALCHA EMU CREEK, AS",-30.9406,151.7078,1060.0
ASN00056013,"GLEN INNES AG RESEARCH STATION, AS",-29.6953,151.6936,1060.0
ASN00056016,"GUYRA POST OFFICE, AS",-30.2204,151.6714,1325.0
ASN00056018,"INVERELL RESEARCH CENTRE, AS",-29.7752,151.0819,664.0
ASN00056023,"OLD KOREELAH MCPHERSON, AS",-28.3933,152.4157,420.0
ASN00056028,"URALLA SALISBURY COURT, AS",-30.7338,151.5105,1018.0
ASN00056032,"TENTERFIELD FEDERATION PARK, AS",-29.0479,152.0172,838.0
ASN00056034,"URALLA DUMARESQ ST, AS",-30.6437,151.4906,1012.0
ASN00056037,"ARMIDALE TREE GROUP NURSERY, AS",-30.5264,151.6697,987.0
ASN00056038,"WYLIE CREEK ALOOMBA, AS",-28.5529,152.1577,675.0
ASN00056052,"TENTERFIELD MOLE STATION, AS",-29.0988,151.7416,440.0
ASN00056057,"TENTERDEN BALOOK, AS",-30.0867,151.3909,1040.0
ASN00056077,"WALCHA CRAIGDARROCH, AS",-31.0678,151.5022,1061.0
ASN00056083,"GLEN MORRISON BRANGA PLAINS, AS",-31.2642,151.5465,1190.0
ASN00056098,"DUNDEE KARINGA, AS",-29.5817,151.9483,1035.0
ASN00056111,"ELSMORE DANTHONIA, AS",-29.7799,151.3503,780.0
ASN00056141,"BOONOO BOONOO CURRAWONG, AS",-28.8867,152.1144,990.0
ASN00056161,"GUYRA GOWAN BRAE, AS",-30.1575,151.8774,1325.0
ASN00056176,"BUNDARRA BIMBADEEN, AS",-30.1369,151.2581,756.0
ASN00056202,"BLACK SWAMP MAXWELL, AS",-28.9776,152.1552,820.0
ASN00056205,"PINKETT BENBOOKRA, AS",-29.8995,151.965,1105.0
ASN00056229,"GUYRA HOSPITAL, AS",-30.2126,151.6787,1332.0
ASN00056234,"WALCHA THEE ST, AS",-30.9874,151.5855,1120.0
ASN00056236,"WALCHA INGLEWOOD, AS",-31.0109,151.6246,1151.0
ASN00056237,"INVERELL ELSMORE VILLAGE, AS",-29.8025,151.2726,700.0
ASN00056238,"ARMIDALE AIRPORT AWS, AS",-30.5273,151.6158,1079.0
ASN00056239,"WILSONS DOWNFALL, AS",-28.7014,152.0974,965.0
ASN00056240,"GUYRA BOX POINT, AS",-30.3358,151.7367,1340.0
ASN00056242,"INVERELL RAGLAN ST, AS",-29.7796,151.1121,582.0
ASN00056243,"GLEN INNES AIRPORT AWS, AS",-29.678,151.694,1044.3
ASN00057003,"BONALBO POST OFFICE, AS",-28.737,152.6228,170.0
ASN00057005,"DRAKE VILLAGE RESOURCE CENTRE, AS",-28.9279,152.3759,490.0
ASN00057014,"GLEN ELGIN GLENBROOK, AS",-29.5577,152.1388,895.0
ASN00057020,"URBENVILLE OLD POST OFFICE, AS",-28.4735,152.5481,370.0
ASN00057023,"EBOR WONGWIBINDA, AS",-30.2892,152.1701,1195.0
ASN00057035,"YARROWITCH BENDITI, AS",-31.1333,152.1253,975.0
ASN00057079,"WOLLOMOMBI WOLLOMOMBI RIVER, AS",-30.5178,152.0431,900.0
ASN00057091,"URALLA BLUE NOBBY, AS",-30.7167,151.8531,1067.0
ASN00057093,"CANGAI SMELTER CREEK, AS",-29.5101,152.4897,140.0
ASN00057095,"TABULAM MUIRNE, AS",-28.7551,152.4507,555.0
ASN00057103,"KOOKABOOKRA, AS",-30.0093,152.0101,975.0
ASN00057104,"YARROWITCH MARETTO, AS",-31.2739,151.9655,1110.0
ASN00057114,"BARYULGIL CLARENCE RIVER, AS",-29.1967,152.595,
ASN00057124,"POINT LOOKOUT, AS",-30.4833,152.398,1550.0
ASN00058005,"BRAYS CREEK MISTY MOUNTAIN, AS",-28.3981,153.1731,130.0
ASN00058007,"BYRON BAY JACARANDA DRIVE, AS",-28.6369,153.588,3.0
